{
  "stations": [
    {
      "id": "ADAMSTOWNSTATION_T",
      "name": "Adamstown Station",
      "lat": -32.93365273,
      "lon": 151.72020335,
      "code": "ADAMST",
      "tfnswStopId": "228920",
      "mode": "train"
    },
    {
      "id": "ALBIONPARKSTATION_T",
      "name": "Albion Park Station",
      "lat": -34.56288179,
      "lon": 150.79871523,
      "code": "ALBION",
      "tfnswStopId": "252710",
      "mode": "train"
    },
    {
      "id": "ALLAWAH_T",
      "name": "Allawah Station",
      "lat": -33.96972995,
      "lon": 151.11454867,
      "code": "ALLAWA",
      "tfnswStopId": "222020",
      "mode": "train"
    },
    {
      "id": "ARNCLIFFE_T",
      "name": "Arncliffe Station",
      "lat": -33.93678246,
      "lon": 151.147174,
      "code": "ARNCLI",
      "tfnswStopId": "220520",
      "mode": "train"
    },
    {
      "id": "ARTARMON_T",
      "name": "Artarmon Station",
      "lat": -33.80854241,
      "lon": 151.18470089,
      "code": "ARTARM",
      "tfnswStopId": "206410",
      "mode": "train"
    },
    {
      "id": "ASHFIELD_T",
      "name": "Ashfield Station",
      "lat": -33.88763777,
      "lon": 151.12585123,
      "code": "ASHFIE",
      "tfnswStopId": "213110",
      "mode": "train"
    },
    {
      "id": "ASQUITH_T",
      "name": "Asquith Station",
      "lat": -33.68852348,
      "lon": 151.10820109,
      "code": "ASQUIT",
      "tfnswStopId": "207730",
      "mode": "train"
    },
    {
      "id": "AUBURN_T",
      "name": "Auburn Station",
      "lat": -33.8494301,
      "lon": 151.03301684,
      "code": "AUBURN",
      "tfnswStopId": "214410",
      "mode": "train"
    },
    {
      "id": "AUSTINMERSTATION_T",
      "name": "Austinmer Station",
      "lat": -34.30645714,
      "lon": 150.92923261,
      "code": "AUSTIN",
      "tfnswStopId": "251540",
      "mode": "train"
    },
    {
      "id": "AWABASTATION_T",
      "name": "Awaba Station",
      "lat": -33.01297684,
      "lon": 151.54212359,
      "code": "AWABAS",
      "tfnswStopId": "228310",
      "mode": "train"
    },
    {
      "id": "BANKSIASTATION_T",
      "name": "Banksia Station",
      "lat": -33.94499641,
      "lon": 151.14058914,
      "code": "BANKSI",
      "tfnswStopId": "221610",
      "mode": "train"
    },
    {
      "id": "BANKSTOWN_T",
      "name": "Bankstown Station",
      "lat": -33.91784784,
      "lon": 151.03465392,
      "code": "BANKST",
      "tfnswStopId": "220010",
      "mode": "train"
    },
    {
      "id": "BARDWELL_PARK_T",
      "name": "Bardwell Park Station",
      "lat": -33.93141993,
      "lon": 151.12526266,
      "code": "BARDWE",
      "tfnswStopId": "220710",
      "mode": "train"
    },
    {
      "id": "BATHURSTSTATION_T",
      "name": "Bathurst Station",
      "lat": -33.42559763,
      "lon": 149.5831806,
      "code": "BATHUR",
      "tfnswStopId": "279538",
      "mode": "train"
    },
    {
      "id": "BEECROFTSTATION_T",
      "name": "Beecroft Station",
      "lat": -33.74927233,
      "lon": 151.06660668,
      "code": "BEECRO",
      "tfnswStopId": "211910",
      "mode": "train"
    },
    {
      "id": "BELLSTATION_T",
      "name": "Bell Station",
      "lat": -33.50601251,
      "lon": 150.27910205,
      "code": "BELLST",
      "tfnswStopId": "278620",
      "mode": "train"
    },
    {
      "id": "BELLAMBISTATION_T",
      "name": "Bellambi Station",
      "lat": -34.36264805,
      "lon": 150.91011528,
      "code": "BELLAM",
      "tfnswStopId": "251810",
      "mode": "train"
    },
    {
      "id": "BERALASTATION_T",
      "name": "Berala Station",
      "lat": -33.87178351,
      "lon": 151.03252488,
      "code": "BERALA",
      "tfnswStopId": "214120",
      "mode": "train"
    },
    {
      "id": "BEROWRA_T",
      "name": "Berowra Station",
      "lat": -33.62338518,
      "lon": 151.15323454,
      "code": "BEROWR",
      "tfnswStopId": "208110",
      "mode": "train"
    },
    {
      "id": "BERRYSTATION_T",
      "name": "Berry Station",
      "lat": -34.78030845,
      "lon": 150.696616,
      "code": "BERRYS",
      "tfnswStopId": "253510",
      "mode": "train"
    },
    {
      "id": "BEVERLY_HILLS_T",
      "name": "Beverly Hills Station",
      "lat": -33.94912063,
      "lon": 151.08086032,
      "code": "BEVERL",
      "tfnswStopId": "220910",
      "mode": "train"
    },
    {
      "id": "BEXLEY_NORTH_T",
      "name": "Bexley North Station",
      "lat": -33.93750842,
      "lon": 151.11377376,
      "code": "BEXLEY",
      "tfnswStopId": "220720",
      "mode": "train"
    },
    {
      "id": "BEXLEY_T",
      "name": "Bexley Station",
      "lat": -33.948,
      "lon": 151.118,
      "code": "BEX",
      "mode": "train"
    },
    {
      "id": "BIRRONGSTATION_T",
      "name": "Birrong Station",
      "lat": -33.89258874,
      "lon": 151.02427803,
      "code": "BIRRON",
      "tfnswStopId": "214320",
      "mode": "train"
    },
    {
      "id": "BLACKHEATHSTATION_T",
      "name": "Blackheath Station",
      "lat": -33.63374163,
      "lon": 150.28438143,
      "code": "BLACKH",
      "tfnswStopId": "278510",
      "mode": "train"
    },
    {
      "id": "BLACKTOWN_T",
      "name": "Blacktown Station",
      "lat": -33.76854404,
      "lon": 150.90708043,
      "code": "BLACKT",
      "tfnswStopId": "214810",
      "mode": "train"
    },
    {
      "id": "BLAXLANDSTATION_T",
      "name": "Blaxland Station",
      "lat": -33.74374219,
      "lon": 150.60978672,
      "code": "BLAXLA",
      "tfnswStopId": "277410",
      "mode": "train"
    },
    {
      "id": "BOMADERRYSTATION_T",
      "name": "Bomaderry Station",
      "lat": -34.85383874,
      "lon": 150.6097542,
      "code": "BOMADE",
      "tfnswStopId": "254110",
      "mode": "train"
    },
    {
      "id": "BOMBOSTATION_T",
      "name": "Bombo Station",
      "lat": -34.65853912,
      "lon": 150.85385441,
      "code": "BOMBOS",
      "tfnswStopId": "253320",
      "mode": "train"
    },
    {
      "id": "BONDI_T",
      "name": "Bondi Junction Station",
      "lat": -33.89119702,
      "lon": 151.24837675,
      "code": "BONDI",
      "tfnswStopId": "202210",
      "mode": "train"
    },
    {
      "id": "BOORAGULSTATION_T",
      "name": "Booragul Station",
      "lat": -32.97170853,
      "lon": 151.60494259,
      "code": "BOORAG",
      "tfnswStopId": "228410",
      "mode": "train"
    },
    {
      "id": "BROADMEADOWSTATION_T",
      "name": "Broadmeadow Station",
      "lat": -32.92272405,
      "lon": 151.73499102,
      "code": "BROADM",
      "tfnswStopId": "229210",
      "mode": "train"
    },
    {
      "id": "BULLABURRASTATION_T",
      "name": "Bullaburra Station",
      "lat": -33.72338686,
      "lon": 150.41500219,
      "code": "BULLAB",
      "tfnswStopId": "278410",
      "mode": "train"
    },
    {
      "id": "BULLISTATION_T",
      "name": "Bulli Station",
      "lat": -34.33443113,
      "lon": 150.91475593,
      "code": "BULLIS",
      "tfnswStopId": "251610",
      "mode": "train"
    },
    {
      "id": "BURWOOD_T",
      "name": "Burwood Station",
      "lat": -33.87710168,
      "lon": 151.10385716,
      "code": "BURWOO",
      "tfnswStopId": "213410",
      "mode": "train"
    },
    {
      "id": "CABRAMATTA_T",
      "name": "Cabramatta Station",
      "lat": -33.89474039,
      "lon": 150.93887636,
      "code": "CABRAM",
      "tfnswStopId": "216620",
      "mode": "train"
    },
    {
      "id": "CAMPBELLTOWN_T",
      "name": "Campbelltown Station",
      "lat": -34.06355569,
      "lon": 150.81463149,
      "code": "CAMPBE",
      "tfnswStopId": "256020",
      "mode": "train"
    },
    {
      "id": "CANLEYVALESTATION_T",
      "name": "Canley Vale Station",
      "lat": -33.88732821,
      "lon": 150.94353766,
      "code": "CANLEY",
      "tfnswStopId": "216610",
      "mode": "train"
    },
    {
      "id": "CARDIFFSTATION_T",
      "name": "Cardiff Station",
      "lat": -32.94142086,
      "lon": 151.66266152,
      "code": "CARDIF",
      "tfnswStopId": "228520",
      "mode": "train"
    },
    {
      "id": "CARINGBAH_T",
      "name": "Caringbah Station",
      "lat": -34.04157831,
      "lon": 151.12202571,
      "code": "CARING",
      "tfnswStopId": "222910",
      "mode": "train"
    },
    {
      "id": "CARLTON_T",
      "name": "Carlton Station",
      "lat": -33.96824293,
      "lon": 151.12450153,
      "code": "CARLTO",
      "tfnswStopId": "221810",
      "mode": "train"
    },
    {
      "id": "CARRAMAR_T",
      "name": "Carramar Station",
      "lat": -33.88445193,
      "lon": 150.96098356,
      "code": "CARRAM",
      "tfnswStopId": "216330",
      "mode": "train"
    },
    {
      "id": "CASULA_T",
      "name": "Casula Station",
      "lat": -33.95021052,
      "lon": 150.91182891,
      "code": "CASULA",
      "tfnswStopId": "217030",
      "mode": "train"
    },
    {
      "id": "CENTRAL_T",
      "name": "Central Station",
      "lat": -33.88402424,
      "lon": 151.20620308,
      "code": "CENTRA",
      "tfnswStopId": "200060",
      "mode": "train"
    },
    {
      "id": "CHATSWOOD_T",
      "name": "Chatswood Station",
      "lat": -33.79723668,
      "lon": 151.18093364,
      "code": "CHATSW",
      "tfnswStopId": "206710",
      "mode": "train"
    },
    {
      "id": "CHELTENHAMSTATION_T",
      "name": "Cheltenham Station",
      "lat": -33.75561151,
      "lon": 151.07845967,
      "code": "CHELTE",
      "tfnswStopId": "211920",
      "mode": "train"
    },
    {
      "id": "CHESTERHILLSTATION_T",
      "name": "Chester Hill Station",
      "lat": -33.8836589,
      "lon": 151.0002517,
      "code": "CHESTE",
      "tfnswStopId": "216220",
      "mode": "train"
    },
    {
      "id": "CIRCULARQUAY_T",
      "name": "Circular Quay Station",
      "lat": -33.86135094,
      "lon": 151.21081302,
      "code": "CIRCUL",
      "tfnswStopId": "200020",
      "mode": "train"
    },
    {
      "id": "CLARENDONSTATION_T",
      "name": "Clarendon Station",
      "lat": -33.60858478,
      "lon": 150.78789489,
      "code": "CLAREN",
      "tfnswStopId": "275630",
      "mode": "train"
    },
    {
      "id": "CLYDESTATION_T",
      "name": "Clyde Station",
      "lat": -33.83595319,
      "lon": 151.01694198,
      "code": "CLYDES",
      "tfnswStopId": "214230",
      "mode": "train"
    },
    {
      "id": "COALCLIFFSTATION_T",
      "name": "Coalcliff Station",
      "lat": -34.24228517,
      "lon": 150.97715193,
      "code": "COALCL",
      "tfnswStopId": "250850",
      "mode": "train"
    },
    {
      "id": "COCKLECREEKSTATION_T",
      "name": "Cockle Creek Station",
      "lat": -32.94267124,
      "lon": 151.62376463,
      "code": "COCKLE",
      "tfnswStopId": "228430",
      "mode": "train"
    },
    {
      "id": "COLEDALESTATION_T",
      "name": "Coledale Station",
      "lat": -34.28967263,
      "lon": 150.94316009,
      "code": "COLEDA",
      "tfnswStopId": "251530",
      "mode": "train"
    },
    {
      "id": "COMO_T",
      "name": "Como Station",
      "lat": -34.00461939,
      "lon": 151.06824108,
      "code": "COMO",
      "tfnswStopId": "222610",
      "mode": "train"
    },
    {
      "id": "CONCORDWESTSTATION_T",
      "name": "Concord West Station",
      "lat": -33.84860505,
      "lon": 151.08562376,
      "code": "CONCOR",
      "tfnswStopId": "213810",
      "mode": "train"
    },
    {
      "id": "CONISTONSTATION_T",
      "name": "Coniston Station",
      "lat": -34.43783563,
      "lon": 150.88520162,
      "code": "CONIST",
      "tfnswStopId": "250030",
      "mode": "train"
    },
    {
      "id": "CORRIMALSTATION_T",
      "name": "Corrimal Station",
      "lat": -34.3755701,
      "lon": 150.90502206,
      "code": "CORRIM",
      "tfnswStopId": "251820",
      "mode": "train"
    },
    {
      "id": "COWAN_T",
      "name": "Cowan Station",
      "lat": -33.59356714,
      "lon": 151.17177424,
      "code": "COWAN",
      "tfnswStopId": "208120",
      "mode": "train"
    },
    {
      "id": "CRONULLA_T",
      "name": "Cronulla Station",
      "lat": -34.05578475,
      "lon": 151.15149843,
      "code": "CRONUL",
      "tfnswStopId": "223020",
      "mode": "train"
    },
    {
      "id": "CROYDON_T",
      "name": "Croydon Station",
      "lat": -33.88307479,
      "lon": 151.11520613,
      "code": "CROYDO",
      "tfnswStopId": "213210",
      "mode": "train"
    },
    {
      "id": "DAPTOSTATION_T",
      "name": "Dapto Station",
      "lat": -34.49301276,
      "lon": 150.79168664,
      "code": "DAPTOS",
      "tfnswStopId": "253020",
      "mode": "train"
    },
    {
      "id": "DENISTONESTATION_T",
      "name": "Denistone Station",
      "lat": -33.79962625,
      "lon": 151.08692825,
      "code": "DENIST",
      "tfnswStopId": "211410",
      "mode": "train"
    },
    {
      "id": "AIRPORT_DOM_T",
      "name": "Domestic Airport Station",
      "lat": -33.93362984,
      "lon": 151.18065972,
      "code": "AIRPOR",
      "tfnswStopId": "202020",
      "mode": "train"
    },
    {
      "id": "DOONSIDESTATION_T",
      "name": "Doonside Station",
      "lat": -33.76389763,
      "lon": 150.86869678,
      "code": "DOONSI",
      "tfnswStopId": "276710",
      "mode": "train"
    },
    {
      "id": "DORACREEKSTATION_T",
      "name": "Dora Creek Station",
      "lat": -33.08371456,
      "lon": 151.50094658,
      "code": "DORACR",
      "tfnswStopId": "226420",
      "mode": "train"
    },
    {
      "id": "EAST_HILLS_T",
      "name": "East Hills Station",
      "lat": -33.9618174,
      "lon": 150.98472867,
      "code": "EAST_H",
      "tfnswStopId": "221320",
      "mode": "train"
    },
    {
      "id": "EASTRICHMONDSTATION_T",
      "name": "East Richmond Station",
      "lat": -33.60172876,
      "lon": 150.75891556,
      "code": "EASTRI",
      "tfnswStopId": "275310",
      "mode": "train"
    },
    {
      "id": "EASTWOOD_T",
      "name": "Eastwood Station",
      "lat": -33.79030086,
      "lon": 151.08229721,
      "code": "EASTWO",
      "tfnswStopId": "212210",
      "mode": "train"
    },
    {
      "id": "EDGECLIFF_T",
      "name": "Edgecliff Station",
      "lat": -33.87937104,
      "lon": 151.23625289,
      "code": "EDGECL",
      "tfnswStopId": "202710",
      "mode": "train"
    },
    {
      "id": "EDMONSON_PARK_T",
      "name": "Edmondson Park Station",
      "lat": -33.96932346,
      "lon": 150.85880158,
      "code": "EDMONS",
      "tfnswStopId": "217426",
      "mode": "train"
    },
    {
      "id": "EMU_PLAINS_T",
      "name": "Emu Plains Station",
      "lat": -33.74572534,
      "lon": 150.67142718,
      "code": "EMU_PL",
      "tfnswStopId": "275020",
      "mode": "train"
    },
    {
      "id": "ENFIELD_T",
      "name": "Enfield Station",
      "lat": -33.898,
      "lon": 151.098,
      "code": "ENF",
      "mode": "train"
    },
    {
      "id": "ENGADINE_T",
      "name": "Engadine Station",
      "lat": -34.06770196,
      "lon": 151.01486023,
      "code": "ENGADI",
      "tfnswStopId": "223310",
      "mode": "train"
    },
    {
      "id": "EPPING_T",
      "name": "Epping Station",
      "lat": -33.77283671,
      "lon": 151.08208231,
      "code": "EPPING",
      "tfnswStopId": "212110",
      "mode": "train"
    },
    {
      "id": "ERSKINEVILLESTATION_T",
      "name": "Erskineville Station",
      "lat": -33.90018265,
      "lon": 151.1854959,
      "code": "ERSKIN",
      "tfnswStopId": "204310",
      "mode": "train"
    },
    {
      "id": "FAIRFIELDSTATION_T",
      "name": "Fairfield Station",
      "lat": -33.87224505,
      "lon": 150.95725354,
      "code": "FAIRFI",
      "tfnswStopId": "216510",
      "mode": "train"
    },
    {
      "id": "FAIRYMEADOWSTATION_T",
      "name": "Fairy Meadow Station",
      "lat": -34.39521697,
      "lon": 150.89644618,
      "code": "FAIRYM",
      "tfnswStopId": "251910",
      "mode": "train"
    },
    {
      "id": "FASSIFERNSTATION_T",
      "name": "Fassifern Station",
      "lat": -32.98563743,
      "lon": 151.58094353,
      "code": "FASSIF",
      "tfnswStopId": "228330",
      "mode": "train"
    },
    {
      "id": "FAULCONBRIDGESTATION_T",
      "name": "Faulconbridge Station",
      "lat": -33.6965933,
      "lon": 150.53493365,
      "code": "FAULCO",
      "tfnswStopId": "277610",
      "mode": "train"
    },
    {
      "id": "FLEMINGTON_T",
      "name": "Flemington Station",
      "lat": -33.86491214,
      "lon": 151.07017841,
      "code": "FLEMIN",
      "tfnswStopId": "214020",
      "mode": "train"
    },
    {
      "id": "GERRINGONGSTATION_T",
      "name": "Gerringong Station",
      "lat": -34.74476128,
      "lon": 150.81760128,
      "code": "GERRIN",
      "tfnswStopId": "253420",
      "mode": "train"
    },
    {
      "id": "GLENBROOKSTATION_T",
      "name": "Glenbrook Station",
      "lat": -33.76911515,
      "lon": 150.62104944,
      "code": "GLENBR",
      "tfnswStopId": "277310",
      "mode": "train"
    },
    {
      "id": "GLENFIELD_T",
      "name": "Glenfield Station",
      "lat": -33.97220759,
      "lon": 150.89306653,
      "code": "GLENFI",
      "tfnswStopId": "216710",
      "mode": "train"
    },
    {
      "id": "GORDON_T",
      "name": "Gordon Station",
      "lat": -33.75591148,
      "lon": 151.15444755,
      "code": "GORDON",
      "tfnswStopId": "207210",
      "mode": "train"
    },
    {
      "id": "GOSFORD_T",
      "name": "Gosford Station",
      "lat": -33.42348495,
      "lon": 151.3417336,
      "code": "GOSFOR",
      "tfnswStopId": "225040",
      "mode": "train"
    },
    {
      "id": "GRANVILLE_T",
      "name": "Granville Station",
      "lat": -33.83275764,
      "lon": 151.01186867,
      "code": "GRANVI",
      "tfnswStopId": "214240",
      "mode": "train"
    },
    {
      "id": "GREEN_SQUARE_T",
      "name": "Green Square Station",
      "lat": -33.90607818,
      "lon": 151.20257663,
      "code": "GREEN_",
      "tfnswStopId": "201710",
      "mode": "train"
    },
    {
      "id": "GUILDFORDSTATION_T",
      "name": "Guildford Station",
      "lat": -33.85443792,
      "lon": 150.98439283,
      "code": "GUILDF",
      "tfnswStopId": "216110",
      "mode": "train"
    },
    {
      "id": "GYMEA_T",
      "name": "Gymea Station",
      "lat": -34.0348695,
      "lon": 151.08526089,
      "code": "GYMEA",
      "tfnswStopId": "222710",
      "mode": "train"
    },
    {
      "id": "HAMILTONSTATION_T",
      "name": "Hamilton Station",
      "lat": -32.91846324,
      "lon": 151.748498,
      "code": "HAMILT",
      "tfnswStopId": "230310",
      "mode": "train"
    },
    {
      "id": "HARRISPARKSTATION_T",
      "name": "Harris Park Station",
      "lat": -33.82335268,
      "lon": 151.00765002,
      "code": "HARRIS",
      "tfnswStopId": "215010",
      "mode": "train"
    },
    {
      "id": "HAWKESBURY_RIVER_T",
      "name": "Hawkesbury River Station",
      "lat": -33.54684344,
      "lon": 151.22657548,
      "code": "HAWKES",
      "tfnswStopId": "208310",
      "mode": "train"
    },
    {
      "id": "HAZELBROOKSTATION_T",
      "name": "Hazelbrook Station",
      "lat": -33.72368467,
      "lon": 150.45415753,
      "code": "HAZELB",
      "tfnswStopId": "277910",
      "mode": "train"
    },
    {
      "id": "HEATHCOTE_T",
      "name": "Heathcote Station",
      "lat": -34.08791879,
      "lon": 151.00833242,
      "code": "HEATHC",
      "tfnswStopId": "223320",
      "mode": "train"
    },
    {
      "id": "HELENSBURGHSTATION_T",
      "name": "Helensburgh Station",
      "lat": -34.17705075,
      "lon": 150.99425973,
      "code": "HELENS",
      "tfnswStopId": "250810",
      "mode": "train"
    },
    {
      "id": "HOLSWORTHYSTATION_T",
      "name": "Holsworthy Station",
      "lat": -33.96319517,
      "lon": 150.95658976,
      "code": "HOLSWO",
      "tfnswStopId": "217310",
      "mode": "train"
    },
    {
      "id": "HOMEBUSH_T",
      "name": "Homebush Station",
      "lat": -33.86668795,
      "lon": 151.08619478,
      "code": "HOMEBU",
      "tfnswStopId": "214010",
      "mode": "train"
    },
    {
      "id": "HORNSBY_T",
      "name": "Hornsby Station",
      "lat": -33.70347479,
      "lon": 151.09835973,
      "code": "HORNSB",
      "tfnswStopId": "207720",
      "mode": "train"
    },
    {
      "id": "HURSTVILLE_T",
      "name": "Hurstville Station",
      "lat": -33.96744133,
      "lon": 151.10269428,
      "code": "HURSTV",
      "tfnswStopId": "222010",
      "mode": "train"
    },
    {
      "id": "INGLEBURNSTATION_T",
      "name": "Ingleburn Station",
      "lat": -33.99748219,
      "lon": 150.86457694,
      "code": "INGLEB",
      "tfnswStopId": "256510",
      "mode": "train"
    },
    {
      "id": "AIRPORT_INT_T",
      "name": "International Airport Station",
      "lat": -33.93497091,
      "lon": 151.16584068,
      "code": "AIRPOR",
      "tfnswStopId": "202030",
      "mode": "train"
    },
    {
      "id": "JANNALI_T",
      "name": "Jannali Station",
      "lat": -34.01610952,
      "lon": 151.06464581,
      "code": "JANNAL",
      "tfnswStopId": "222620",
      "mode": "train"
    },
    {
      "id": "KATOOMBA_T",
      "name": "Katoomba Station",
      "lat": -33.71203514,
      "lon": 150.31166184,
      "code": "KATOOM",
      "tfnswStopId": "278020",
      "mode": "train"
    },
    {
      "id": "KIAMA_T",
      "name": "Kiama Station",
      "lat": -34.67266689,
      "lon": 150.8544551,
      "code": "KIAMA",
      "tfnswStopId": "253330",
      "mode": "train"
    },
    {
      "id": "KILLARA_T",
      "name": "Killara Station",
      "lat": -33.76569908,
      "lon": 151.16184659,
      "code": "KILLAR",
      "tfnswStopId": "207110",
      "mode": "train"
    },
    {
      "id": "KINGS_CROSS_T",
      "name": "Kings Cross Station",
      "lat": -33.87448343,
      "lon": 151.2222282,
      "code": "KINGS_",
      "tfnswStopId": "201110",
      "mode": "train"
    },
    {
      "id": "KINGSGROVE_T",
      "name": "Kingsgrove Station",
      "lat": -33.94048235,
      "lon": 151.10081465,
      "code": "KINGSG",
      "tfnswStopId": "220810",
      "mode": "train"
    },
    {
      "id": "KINGSWOODSTATION_T",
      "name": "Kingswood Station",
      "lat": -33.75842011,
      "lon": 150.72053259,
      "code": "KINGSW",
      "tfnswStopId": "274720",
      "mode": "train"
    },
    {
      "id": "KIRRAWEE_T",
      "name": "Kirrawee Station",
      "lat": -34.03497564,
      "lon": 151.07121805,
      "code": "KIRRAW",
      "tfnswStopId": "223230",
      "mode": "train"
    },
    {
      "id": "KOGARAH_T",
      "name": "Kogarah Station",
      "lat": -33.96254149,
      "lon": 151.13248719,
      "code": "KOGARA",
      "tfnswStopId": "221710",
      "mode": "train"
    },
    {
      "id": "KOOLEWONGSTATION_T",
      "name": "Koolewong Station",
      "lat": -33.46639025,
      "lon": 151.31850646,
      "code": "KOOLEW",
      "tfnswStopId": "225620",
      "mode": "train"
    },
    {
      "id": "KOTARASTATION_T",
      "name": "Kotara Station",
      "lat": -32.94158666,
      "lon": 151.69783908,
      "code": "KOTARA",
      "tfnswStopId": "228910",
      "mode": "train"
    },
    {
      "id": "LAPSTONESTATION_T",
      "name": "Lapstone Station",
      "lat": -33.77345788,
      "lon": 150.64280498,
      "code": "LAPSTO",
      "tfnswStopId": "275030",
      "mode": "train"
    },
    {
      "id": "LAWSONSTATION_T",
      "name": "Lawson Station",
      "lat": -33.7191006,
      "lon": 150.42980295,
      "code": "LAWSON",
      "tfnswStopId": "278310",
      "mode": "train"
    },
    {
      "id": "LEIGHTONFIELDSTATION_T",
      "name": "Leightonfield Station",
      "lat": -33.88148108,
      "lon": 150.98489517,
      "code": "LEIGHT",
      "tfnswStopId": "216310",
      "mode": "train"
    },
    {
      "id": "LEPPINGTON_T",
      "name": "Leppington Station",
      "lat": -33.95445703,
      "lon": 150.80817012,
      "code": "LEPPIN",
      "tfnswStopId": "217933",
      "mode": "train"
    },
    {
      "id": "LEUMEAHSTATION_T",
      "name": "Leumeah Station",
      "lat": -34.05067661,
      "lon": 150.83060671,
      "code": "LEUMEA",
      "tfnswStopId": "256010",
      "mode": "train"
    },
    {
      "id": "LEURASTATION_T",
      "name": "Leura Station",
      "lat": -33.71207455,
      "lon": 150.33095833,
      "code": "LEURAS",
      "tfnswStopId": "278010",
      "mode": "train"
    },
    {
      "id": "LEWISHAMSTATION_T",
      "name": "Lewisham Station",
      "lat": -33.89341703,
      "lon": 151.14770641,
      "code": "LEWISH",
      "tfnswStopId": "204920",
      "mode": "train"
    },
    {
      "id": "LIDCOMBE_T",
      "name": "Lidcombe Station",
      "lat": -33.86375583,
      "lon": 151.04512981,
      "code": "LIDCOM",
      "tfnswStopId": "214110",
      "mode": "train"
    },
    {
      "id": "LINDENSTATION_T",
      "name": "Linden Station",
      "lat": -33.71489917,
      "lon": 150.50520665,
      "code": "LINDEN",
      "tfnswStopId": "277820",
      "mode": "train"
    },
    {
      "id": "LINDFIELD_T",
      "name": "Lindfield Station",
      "lat": -33.77552136,
      "lon": 151.16927068,
      "code": "LINDFI",
      "tfnswStopId": "207010",
      "mode": "train"
    },
    {
      "id": "LISAROWSTATION_T",
      "name": "Lisarow Station",
      "lat": -33.38209529,
      "lon": 151.37017048,
      "code": "LISARO",
      "tfnswStopId": "225070",
      "mode": "train"
    },
    {
      "id": "LITHGOW_T",
      "name": "Lithgow Station",
      "lat": -33.48066213,
      "lon": 150.156808,
      "code": "LITHGO",
      "tfnswStopId": "279010",
      "mode": "train"
    },
    {
      "id": "LIVERPOOL_T",
      "name": "Liverpool Station",
      "lat": -33.92492704,
      "lon": 150.92732848,
      "code": "LIVERP",
      "tfnswStopId": "217020",
      "mode": "train"
    },
    {
      "id": "LOFTUS_T",
      "name": "Loftus Station",
      "lat": -34.04522117,
      "lon": 151.05131573,
      "code": "LOFTUS",
      "tfnswStopId": "223220",
      "mode": "train"
    },
    {
      "id": "MACARTHUR_T",
      "name": "Macarthur Station",
      "lat": -34.07199134,
      "lon": 150.79716422,
      "code": "MACART",
      "tfnswStopId": "256030",
      "mode": "train"
    },
    {
      "id": "MACDONALDTOWNSTATION_T",
      "name": "Macdonaldtown Station",
      "lat": -33.89695934,
      "lon": 151.18569469,
      "code": "MACDON",
      "tfnswStopId": "201520",
      "mode": "train"
    },
    {
      "id": "MACQUARIE_FIELDS_T",
      "name": "Macquarie Fields Station",
      "lat": -33.98483038,
      "lon": 150.87887723,
      "code": "MACQUA",
      "tfnswStopId": "256410",
      "mode": "train"
    },
    {
      "id": "MAITLAND_T",
      "name": "Maitland Station",
      "lat": -32.738,
      "lon": 151.552,
      "code": "MTL",
      "mode": "train"
    },
    {
      "id": "MARAYONG_T",
      "name": "Marayong Station",
      "lat": -33.74609965,
      "lon": 150.90017109,
      "code": "MARAYO",
      "tfnswStopId": "214820",
      "mode": "train"
    },
    {
      "id": "MARTINPLACE_T",
      "name": "Martin Place Station",
      "lat": -33.86764769,
      "lon": 151.21058267,
      "code": "MARTIN",
      "tfnswStopId": "200030",
      "mode": "train"
    },
    {
      "id": "MASCOT_T",
      "name": "Mascot Station",
      "lat": -33.92317637,
      "lon": 151.1873354,
      "code": "MASCOT",
      "tfnswStopId": "202010",
      "mode": "train"
    },
    {
      "id": "MEADOWBANK_T",
      "name": "Meadowbank Station",
      "lat": -33.81579356,
      "lon": 151.09010555,
      "code": "MEADOW",
      "tfnswStopId": "211430",
      "mode": "train"
    },
    {
      "id": "MEDLOWBATHSTATION_T",
      "name": "Medlow Bath Station",
      "lat": -33.6735552,
      "lon": 150.28064561,
      "code": "MEDLOW",
      "tfnswStopId": "278030",
      "mode": "train"
    },
    {
      "id": "MERRYLANDS_T",
      "name": "Merrylands Station",
      "lat": -33.83668568,
      "lon": 150.99248668,
      "code": "MERRYL",
      "tfnswStopId": "216010",
      "mode": "train"
    },
    {
      "id": "MILSONS_POINT_T",
      "name": "Milsons Point Station",
      "lat": -33.8459361,
      "lon": 151.21183697,
      "code": "MILSON",
      "tfnswStopId": "206110",
      "mode": "train"
    },
    {
      "id": "MINNAMURRASTATION_T",
      "name": "Minnamurra Station",
      "lat": -34.62633152,
      "lon": 150.85282021,
      "code": "MINNAM",
      "tfnswStopId": "253310",
      "mode": "train"
    },
    {
      "id": "MINTOSTATION_T",
      "name": "Minto Station",
      "lat": -34.02744354,
      "lon": 150.84249432,
      "code": "MINTOS",
      "tfnswStopId": "256610",
      "mode": "train"
    },
    {
      "id": "MIRANDA_T",
      "name": "Miranda Station",
      "lat": -34.03625439,
      "lon": 151.10209197,
      "code": "MIRAND",
      "tfnswStopId": "222810",
      "mode": "train"
    },
    {
      "id": "MORISSETSTATION_T",
      "name": "Morisset Station",
      "lat": -33.10896063,
      "lon": 151.48814873,
      "code": "MORISS",
      "tfnswStopId": "226410",
      "mode": "train"
    },
    {
      "id": "MORTDALE_T",
      "name": "Mortdale Station",
      "lat": -33.9710471,
      "lon": 151.08100076,
      "code": "MORTDA",
      "tfnswStopId": "222310",
      "mode": "train"
    },
    {
      "id": "MOSS_VALE_T",
      "name": "Moss Vale Station",
      "lat": -34.548,
      "lon": 150.372,
      "code": "MSV",
      "mode": "train"
    },
    {
      "id": "MOUNT_COLAH_T",
      "name": "Mount Colah Station",
      "lat": -33.67174586,
      "lon": 151.11469754,
      "code": "MOUNT_",
      "tfnswStopId": "207910",
      "mode": "train"
    },
    {
      "id": "MOUNT_DRUITT_T",
      "name": "Mount Druitt Station",
      "lat": -33.76955803,
      "lon": 150.82012586,
      "code": "MOUNT_",
      "tfnswStopId": "277010",
      "mode": "train"
    },
    {
      "id": "MOUNT_KURINGGAI_T",
      "name": "Mount Kuring-gai Station",
      "lat": -33.65358907,
      "lon": 151.13682391,
      "code": "MOUNT_",
      "tfnswStopId": "208010",
      "mode": "train"
    },
    {
      "id": "MOUNTVICTORIASTATION_T",
      "name": "Mount Victoria Station",
      "lat": -33.58820075,
      "lon": 150.25692324,
      "code": "MOUNTV",
      "tfnswStopId": "278610",
      "mode": "train"
    },
    {
      "id": "MULGRAVESTATION_T",
      "name": "Mulgrave Station",
      "lat": -33.6265162,
      "lon": 150.83003584,
      "code": "MULGRA",
      "tfnswStopId": "275610",
      "mode": "train"
    },
    {
      "id": "MUSEUM_T",
      "name": "Museum Station",
      "lat": -33.8755711,
      "lon": 151.20994628,
      "code": "MUSEUM",
      "tfnswStopId": "200040",
      "mode": "train"
    },
    {
      "id": "NARARASTATION_T",
      "name": "Narara Station",
      "lat": -33.39461057,
      "lon": 151.34452641,
      "code": "NARARA",
      "tfnswStopId": "2250772",
      "mode": "train"
    },
    {
      "id": "NARWEE_T",
      "name": "Narwee Station",
      "lat": -33.94767733,
      "lon": 151.07058514,
      "code": "NARWEE",
      "tfnswStopId": "220920",
      "mode": "train"
    },
    {
      "id": "NEWCASTLE_T",
      "name": "Newcastle Interchange Station",
      "lat": -32.92404091,
      "lon": 151.75908192,
      "code": "NEWCAS",
      "tfnswStopId": "229310",
      "mode": "train"
    },
    {
      "id": "NEWTOWNSTATION_T",
      "name": "Newtown Station",
      "lat": -33.89791301,
      "lon": 151.17937737,
      "code": "NEWTOW",
      "tfnswStopId": "204210",
      "mode": "train"
    },
    {
      "id": "NIAGARAPARKSTATION_T",
      "name": "Niagara Park Station",
      "lat": -33.38307663,
      "lon": 151.35458344,
      "code": "NIAGAR",
      "tfnswStopId": "225060",
      "mode": "train"
    },
    {
      "id": "NORMANHURSTSTATION_T",
      "name": "Normanhurst Station",
      "lat": -33.72082663,
      "lon": 151.0970721,
      "code": "NORMAN",
      "tfnswStopId": "207620",
      "mode": "train"
    },
    {
      "id": "NORTHSTRATHFIELDSTATION_T",
      "name": "North Strathfield Station",
      "lat": -33.85918843,
      "lon": 151.08818062,
      "code": "NORTHS",
      "tfnswStopId": "213710",
      "mode": "train"
    },
    {
      "id": "NORTHSYDNEY_T",
      "name": "North Sydney Station",
      "lat": -33.84115005,
      "lon": 151.20741233,
      "code": "NORTHS",
      "tfnswStopId": "206010",
      "mode": "train"
    },
    {
      "id": "NORTHWOLLONGONGSTATION_T",
      "name": "North Wollongong Station",
      "lat": -34.41227335,
      "lon": 150.89138888,
      "code": "NORTHW",
      "tfnswStopId": "250010",
      "mode": "train"
    },
    {
      "id": "OAKFLATSSTATION_T",
      "name": "Oak Flats Station",
      "lat": -34.57194651,
      "lon": 150.82034881,
      "code": "OAKFLA",
      "tfnswStopId": "252920",
      "mode": "train"
    },
    {
      "id": "OATLEY_T",
      "name": "Oatley Station",
      "lat": -33.9803847,
      "lon": 151.07901413,
      "code": "OATLEY",
      "tfnswStopId": "222320",
      "mode": "train"
    },
    {
      "id": "OLYMPIC_PARK_T",
      "name": "Olympic Park Station",
      "lat": -33.84659492,
      "lon": 151.06932974,
      "code": "OLYMPI",
      "tfnswStopId": "212710",
      "mode": "train"
    },
    {
      "id": "OTFORDSTATION_T",
      "name": "Otford Station",
      "lat": -34.21070562,
      "lon": 151.00582748,
      "code": "OTFORD",
      "tfnswStopId": "250830",
      "mode": "train"
    },
    {
      "id": "OURIMBAHSTATION_T",
      "name": "Ourimbah Station",
      "lat": -33.35974907,
      "lon": 151.36999584,
      "code": "OURIMB",
      "tfnswStopId": "225810",
      "mode": "train"
    },
    {
      "id": "PADSTOW_T",
      "name": "Padstow Station",
      "lat": -33.95191691,
      "lon": 151.03217663,
      "code": "PADSTO",
      "tfnswStopId": "221110",
      "mode": "train"
    },
    {
      "id": "PANANIA_T",
      "name": "Panania Station",
      "lat": -33.95427746,
      "lon": 150.99826036,
      "code": "PANANI",
      "tfnswStopId": "221310",
      "mode": "train"
    },
    {
      "id": "PARRAMATTA_T",
      "name": "Parramatta Station",
      "lat": -33.81749025,
      "lon": 151.005325,
      "code": "PARRAM",
      "tfnswStopId": "215020",
      "mode": "train"
    },
    {
      "id": "PENDLEHILLSTATION_T",
      "name": "Pendle Hill Station",
      "lat": -33.80120445,
      "lon": 150.9560804,
      "code": "PENDLE",
      "tfnswStopId": "214530",
      "mode": "train"
    },
    {
      "id": "PENNANTHILLSSTATION_T",
      "name": "Pennant Hills Station",
      "lat": -33.73791201,
      "lon": 151.07255151,
      "code": "PENNAN",
      "tfnswStopId": "212020",
      "mode": "train"
    },
    {
      "id": "PENRITH_T",
      "name": "Penrith Station",
      "lat": -33.75014862,
      "lon": 150.69651584,
      "code": "PENRIT",
      "tfnswStopId": "275010",
      "mode": "train"
    },
    {
      "id": "PENSHURST_T",
      "name": "Penshurst Station",
      "lat": -33.96620899,
      "lon": 151.0888473,
      "code": "PENSHU",
      "tfnswStopId": "222210",
      "mode": "train"
    },
    {
      "id": "PETERSHAMSTATION_T",
      "name": "Petersham Station",
      "lat": -33.89386331,
      "lon": 151.15557204,
      "code": "PETERS",
      "tfnswStopId": "204910",
      "mode": "train"
    },
    {
      "id": "POINTCLARESTATION_T",
      "name": "Point Clare Station",
      "lat": -33.44625901,
      "lon": 151.32841514,
      "code": "POINTC",
      "tfnswStopId": "225030",
      "mode": "train"
    },
    {
      "id": "PYMBLE_T",
      "name": "Pymble Station",
      "lat": -33.74477962,
      "lon": 151.14226141,
      "code": "PYMBLE",
      "tfnswStopId": "207310",
      "mode": "train"
    },
    {
      "id": "QUAKERS_HILL_T",
      "name": "Quakers Hill Station",
      "lat": -33.72746287,
      "lon": 150.88623397,
      "code": "QUAKER",
      "tfnswStopId": "276310",
      "mode": "train"
    },
    {
      "id": "REDFERN_T",
      "name": "Redfern Station",
      "lat": -33.89204769,
      "lon": 151.19841906,
      "code": "REDFER",
      "tfnswStopId": "201510",
      "mode": "train"
    },
    {
      "id": "REGENTS_PARK_T",
      "name": "Regents Park Station",
      "lat": -33.8831901,
      "lon": 151.02401965,
      "code": "REGENT",
      "tfnswStopId": "214310",
      "mode": "train"
    },
    {
      "id": "REVESBY_T",
      "name": "Revesby Station",
      "lat": -33.95251787,
      "lon": 151.01519695,
      "code": "REVESB",
      "tfnswStopId": "221210",
      "mode": "train"
    },
    {
      "id": "RHODES_T",
      "name": "Rhodes Station",
      "lat": -33.83049189,
      "lon": 151.08704933,
      "code": "RHODES",
      "tfnswStopId": "213820",
      "mode": "train"
    },
    {
      "id": "RICHMOND_T",
      "name": "Richmond Station",
      "lat": -33.59884642,
      "lon": 150.75264112,
      "code": "RICHMO",
      "tfnswStopId": "275320",
      "mode": "train"
    },
    {
      "id": "RIVERSTONE_T",
      "name": "Riverstone Station",
      "lat": -33.67926177,
      "lon": 150.86037985,
      "code": "RIVERS",
      "tfnswStopId": "276510",
      "mode": "train"
    },
    {
      "id": "RIVERWOOD_T",
      "name": "Riverwood Station",
      "lat": -33.95139401,
      "lon": 151.05245738,
      "code": "RIVERW",
      "tfnswStopId": "221010",
      "mode": "train"
    },
    {
      "id": "ROCKDALE_T",
      "name": "Rockdale Station",
      "lat": -33.95224818,
      "lon": 151.13661619,
      "code": "ROCKDA",
      "tfnswStopId": "221620",
      "mode": "train"
    },
    {
      "id": "ROOTYHILLSTATION_T",
      "name": "Rooty Hill Station",
      "lat": -33.77162507,
      "lon": 150.84464747,
      "code": "ROOTYH",
      "tfnswStopId": "276610",
      "mode": "train"
    },
    {
      "id": "ROSEHILL_T",
      "name": "Rosehill Station",
      "lat": -33.817,
      "lon": 151.037,
      "code": "RSH",
      "mode": "train"
    },
    {
      "id": "ROSEVILLE_T",
      "name": "Roseville Station",
      "lat": -33.78443617,
      "lon": 151.17766673,
      "code": "ROSEVI",
      "tfnswStopId": "206910",
      "mode": "train"
    },
    {
      "id": "RYDALSTATION_T",
      "name": "Rydal Station",
      "lat": -33.48386625,
      "lon": 150.03184368,
      "code": "RYDALS",
      "tfnswStopId": "2790128",
      "mode": "train"
    },
    {
      "id": "SCARBOROUGHSTATION_T",
      "name": "Scarborough Station",
      "lat": -34.26552566,
      "lon": 150.96541923,
      "code": "SCARBO",
      "tfnswStopId": "251510",
      "mode": "train"
    },
    {
      "id": "SCHOFIELDS_T",
      "name": "Schofields Station",
      "lat": -33.70438029,
      "lon": 150.87377461,
      "code": "SCHOFI",
      "tfnswStopId": "276220",
      "mode": "train"
    },
    {
      "id": "SEFTONSTATION_T",
      "name": "Sefton Station",
      "lat": -33.88527733,
      "lon": 151.01170402,
      "code": "SEFTON",
      "tfnswStopId": "216210",
      "mode": "train"
    },
    {
      "id": "SEVENHILLSSTATION_T",
      "name": "Seven Hills Station",
      "lat": -33.7743511,
      "lon": 150.93612251,
      "code": "SEVENH",
      "tfnswStopId": "214710",
      "mode": "train"
    },
    {
      "id": "SHELLHARBOURJUNCTIONSTATION_T",
      "name": "Shellharbour Junction Station",
      "lat": -34.59134673,
      "lon": 150.84470802,
      "code": "SHELLH",
      "tfnswStopId": "2529218",
      "mode": "train"
    },
    {
      "id": "SPRINGWOODSTATION_T",
      "name": "Springwood Station",
      "lat": -33.69905654,
      "lon": 150.56366276,
      "code": "SPRING",
      "tfnswStopId": "277720",
      "mode": "train"
    },
    {
      "id": "STJAMES_T",
      "name": "St James Station",
      "lat": -33.87062216,
      "lon": 151.21186309,
      "code": "STJAME",
      "tfnswStopId": "200050",
      "mode": "train"
    },
    {
      "id": "STLEONARDS_T",
      "name": "St Leonards Station",
      "lat": -33.8222319,
      "lon": 151.19413439,
      "code": "STLEON",
      "tfnswStopId": "206520",
      "mode": "train"
    },
    {
      "id": "ST_MARYS_T",
      "name": "St Marys Station",
      "lat": -33.76210254,
      "lon": 150.77518003,
      "code": "ST_MAR",
      "tfnswStopId": "276010",
      "mode": "train"
    },
    {
      "id": "STPETERSSTATION_T",
      "name": "St Peters Station",
      "lat": -33.90727298,
      "lon": 151.18074263,
      "code": "STPETE",
      "tfnswStopId": "204410",
      "mode": "train"
    },
    {
      "id": "STANMORESTATION_T",
      "name": "Stanmore Station",
      "lat": -33.89447424,
      "lon": 151.16414803,
      "code": "STANMO",
      "tfnswStopId": "204810",
      "mode": "train"
    },
    {
      "id": "STANWELLPARKSTATION_T",
      "name": "Stanwell Park Station",
      "lat": -34.22627936,
      "lon": 150.98112787,
      "code": "STANWE",
      "tfnswStopId": "250840",
      "mode": "train"
    },
    {
      "id": "STRATHFIELD_T",
      "name": "Strathfield Station",
      "lat": -33.87167201,
      "lon": 151.09428565,
      "code": "STRATH",
      "tfnswStopId": "213510",
      "mode": "train"
    },
    {
      "id": "SUMMERHILLSTATION_T",
      "name": "Summer Hill Station",
      "lat": -33.89044065,
      "lon": 151.1387028,
      "code": "SUMMER",
      "tfnswStopId": "213010",
      "mode": "train"
    },
    {
      "id": "SUTHERLAND_T",
      "name": "Sutherland Station",
      "lat": -34.03175379,
      "lon": 151.05722202,
      "code": "SUTHER",
      "tfnswStopId": "223210",
      "mode": "train"
    },
    {
      "id": "SYDENHAMSTATION_T",
      "name": "Sydenham Station",
      "lat": -33.91445896,
      "lon": 151.16652644,
      "code": "SYDENH",
      "tfnswStopId": "204420",
      "mode": "train"
    },
    {
      "id": "TARANASTATION_T",
      "name": "Tarana Station",
      "lat": -33.52424309,
      "lon": 149.907495,
      "code": "TARANA",
      "tfnswStopId": "27871",
      "mode": "train"
    },
    {
      "id": "TASCOTTSTATION_T",
      "name": "Tascott Station",
      "lat": -33.45091719,
      "lon": 151.31860852,
      "code": "TASCOT",
      "tfnswStopId": "225020",
      "mode": "train"
    },
    {
      "id": "TEMPE_T",
      "name": "Tempe Station",
      "lat": -33.92390407,
      "lon": 151.15660038,
      "code": "TEMPE",
      "tfnswStopId": "204430",
      "mode": "train"
    },
    {
      "id": "TERALBASTATION_T",
      "name": "Teralba Station",
      "lat": -32.96253817,
      "lon": 151.60347199,
      "code": "TERALB",
      "tfnswStopId": "228420",
      "mode": "train"
    },
    {
      "id": "THIRROULSTATION_T",
      "name": "Thirroul Station",
      "lat": -34.31801562,
      "lon": 150.91891203,
      "code": "THIRRO",
      "tfnswStopId": "251550",
      "mode": "train"
    },
    {
      "id": "THORNLEIGHSTATION_T",
      "name": "Thornleigh Station",
      "lat": -33.73189695,
      "lon": 151.07815508,
      "code": "THORNL",
      "tfnswStopId": "212010",
      "mode": "train"
    },
    {
      "id": "TOONGABBIESTATION_T",
      "name": "Toongabbie Station",
      "lat": -33.78738636,
      "lon": 150.95144002,
      "code": "TOONGA",
      "tfnswStopId": "214610",
      "mode": "train"
    },
    {
      "id": "TOWNHALL_T",
      "name": "Town Hall Station",
      "lat": -33.87353896,
      "lon": 151.20692991,
      "code": "TOWNHA",
      "tfnswStopId": "200070",
      "mode": "train"
    },
    {
      "id": "TOWRADGISTATION_T",
      "name": "Towradgi Station",
      "lat": -34.38441889,
      "lon": 150.90134686,
      "code": "TOWRAD",
      "tfnswStopId": "251830",
      "mode": "train"
    },
    {
      "id": "TUGGERAHSTATION_T",
      "name": "Tuggerah Station",
      "lat": -33.30772394,
      "lon": 151.42020531,
      "code": "TUGGER",
      "tfnswStopId": "225910",
      "mode": "train"
    },
    {
      "id": "TURRAMURRA_T",
      "name": "Turramurra Station",
      "lat": -33.73258635,
      "lon": 151.12863644,
      "code": "TURRAM",
      "tfnswStopId": "207410",
      "mode": "train"
    },
    {
      "id": "TURRELLASTATION_T",
      "name": "Turrella Station",
      "lat": -33.92979582,
      "lon": 151.14033853,
      "code": "TURREL",
      "tfnswStopId": "220530",
      "mode": "train"
    },
    {
      "id": "UNANDERRASTATION_T",
      "name": "Unanderra Station",
      "lat": -34.45457966,
      "lon": 150.84615381,
      "code": "UNANDE",
      "tfnswStopId": "252610",
      "mode": "train"
    },
    {
      "id": "VALLEYHEIGHTSSTATION_T",
      "name": "Valley Heights Station",
      "lat": -33.70433308,
      "lon": 150.58374369,
      "code": "VALLEY",
      "tfnswStopId": "277710",
      "mode": "train"
    },
    {
      "id": "VILLAWOOD_T",
      "name": "Villawood Station",
      "lat": -33.88083101,
      "lon": 150.97685942,
      "code": "VILLAW",
      "tfnswStopId": "216320",
      "mode": "train"
    },
    {
      "id": "VINEYARDSTATION_T",
      "name": "Vineyard Station",
      "lat": -33.6503077,
      "lon": 150.85115431,
      "code": "VINEYA",
      "tfnswStopId": "276520",
      "mode": "train"
    },
    {
      "id": "WAHROONGASTATION_T",
      "name": "Wahroonga Station",
      "lat": -33.71804522,
      "lon": 151.1175449,
      "code": "WAHROO",
      "tfnswStopId": "207610",
      "mode": "train"
    },
    {
      "id": "WAITARA_T",
      "name": "Waitara Station",
      "lat": -33.71036513,
      "lon": 151.10494081,
      "code": "WAITAR",
      "tfnswStopId": "207710",
      "mode": "train"
    },
    {
      "id": "WARNERVALESTATION_T",
      "name": "Warnervale Station",
      "lat": -33.24732964,
      "lon": 151.44885085,
      "code": "WARNER",
      "tfnswStopId": "225930",
      "mode": "train"
    },
    {
      "id": "WARRAWEE_T",
      "name": "Warrawee Station",
      "lat": -33.72439856,
      "lon": 151.12182775,
      "code": "WARRAW",
      "tfnswStopId": "207420",
      "mode": "train"
    },
    {
      "id": "WARRIMOOSTATION_T",
      "name": "Warrimoo Station",
      "lat": -33.72140832,
      "lon": 150.60273514,
      "code": "WARRIM",
      "tfnswStopId": "277420",
      "mode": "train"
    },
    {
      "id": "WARWICK_FARM_T",
      "name": "Warwick Farm Station",
      "lat": -33.91331588,
      "lon": 150.93509547,
      "code": "WARWIC",
      "tfnswStopId": "217010",
      "mode": "train"
    },
    {
      "id": "WATERFALL_T",
      "name": "Waterfall Station",
      "lat": -34.13490804,
      "lon": 150.99454839,
      "code": "WATERF",
      "tfnswStopId": "223330",
      "mode": "train"
    },
    {
      "id": "WAVERTON_T",
      "name": "Waverton Station",
      "lat": -33.8376183,
      "lon": 151.19738129,
      "code": "WAVERT",
      "tfnswStopId": "206020",
      "mode": "train"
    },
    {
      "id": "WENTWORTHFALLSSTATION_T",
      "name": "Wentworth Falls Station",
      "lat": -33.70951523,
      "lon": 150.37637161,
      "code": "WENTWO",
      "tfnswStopId": "278210",
      "mode": "train"
    },
    {
      "id": "WENTWORTHVILLESTATION_T",
      "name": "Wentworthville Station",
      "lat": -33.80706891,
      "lon": 150.97236952,
      "code": "WENTWO",
      "tfnswStopId": "214520",
      "mode": "train"
    },
    {
      "id": "WERRINGTONSTATION_T",
      "name": "Werrington Station",
      "lat": -33.75916137,
      "lon": 150.75759387,
      "code": "WERRIN",
      "tfnswStopId": "274710",
      "mode": "train"
    },
    {
      "id": "WEST_RYDE_T",
      "name": "West Ryde Station",
      "lat": -33.80719476,
      "lon": 151.09019218,
      "code": "WEST_R",
      "tfnswStopId": "211420",
      "mode": "train"
    },
    {
      "id": "WESTMEAD_T",
      "name": "Westmead Station",
      "lat": -33.80847754,
      "lon": 150.98789237,
      "code": "WESTME",
      "tfnswStopId": "214510",
      "mode": "train"
    },
    {
      "id": "WINDSORSTATION_T",
      "name": "Windsor Station",
      "lat": -33.61375217,
      "lon": 150.81121394,
      "code": "WINDSO",
      "tfnswStopId": "275620",
      "mode": "train"
    },
    {
      "id": "WOLLI_CREEK_T",
      "name": "Wolli Creek Station",
      "lat": -33.92853822,
      "lon": 151.15411287,
      "code": "WOLLI_",
      "tfnswStopId": "220510",
      "mode": "train"
    },
    {
      "id": "WOLLONGONG_T",
      "name": "Wollongong Station",
      "lat": -34.42701768,
      "lon": 150.88819093,
      "code": "WOLLON",
      "tfnswStopId": "250020",
      "mode": "train"
    },
    {
      "id": "WOLLSTONECRAFT_T",
      "name": "Wollstonecraft Station",
      "lat": -33.83194479,
      "lon": 151.19174851,
      "code": "WOLLST",
      "tfnswStopId": "206510",
      "mode": "train"
    },
    {
      "id": "WOMBARRASTATION_T",
      "name": "Wombarra Station",
      "lat": -34.27547946,
      "lon": 150.95353511,
      "code": "WOMBAR",
      "tfnswStopId": "251520",
      "mode": "train"
    },
    {
      "id": "WONDABYNESTATION_T",
      "name": "Wondabyne Station",
      "lat": -33.49214559,
      "lon": 151.25699945,
      "code": "WONDAB",
      "tfnswStopId": "225010",
      "mode": "train"
    },
    {
      "id": "WOODFORDSTATION_T",
      "name": "Woodford Station",
      "lat": -33.73567216,
      "lon": 150.48171549,
      "code": "WOODFO",
      "tfnswStopId": "277810",
      "mode": "train"
    },
    {
      "id": "WOOLOOWARESTATION_T",
      "name": "Woolooware Station",
      "lat": -34.04754097,
      "lon": 151.14375723,
      "code": "WOOLOO",
      "tfnswStopId": "223010",
      "mode": "train"
    },
    {
      "id": "WOONONASTATION_T",
      "name": "Woonona Station",
      "lat": -34.34963696,
      "lon": 150.91517037,
      "code": "WOONON",
      "tfnswStopId": "251710",
      "mode": "train"
    },
    {
      "id": "WOYWOYSTATION_T",
      "name": "Woy Woy Station",
      "lat": -33.48572837,
      "lon": 151.32330628,
      "code": "WOYWOY",
      "tfnswStopId": "225610",
      "mode": "train"
    },
    {
      "id": "WYEESTATION_T",
      "name": "Wyee Station",
      "lat": -33.18007088,
      "lon": 151.48708552,
      "code": "WYEEST",
      "tfnswStopId": "225940",
      "mode": "train"
    },
    {
      "id": "WYNYARD_T",
      "name": "Wynyard Station",
      "lat": -33.86594489,
      "lon": 151.2061031,
      "code": "WYNYAR",
      "tfnswStopId": "200080",
      "mode": "train"
    },
    {
      "id": "WYONG_T",
      "name": "Wyong Station",
      "lat": -33.28539097,
      "lon": 151.42523404,
      "code": "WYONG",
      "tfnswStopId": "225920",
      "mode": "train"
    },
    {
      "id": "YAGOONASTATION_T",
      "name": "Yagoona Station",
      "lat": -33.90721147,
      "lon": 151.02459877,
      "code": "YAGOON",
      "tfnswStopId": "219910",
      "mode": "train"
    },
    {
      "id": "YENNORASTATION_T",
      "name": "Yennora Station",
      "lat": -33.86466386,
      "lon": 150.97105333,
      "code": "YENNOR",
      "tfnswStopId": "216120",
      "mode": "train"
    },
    {
      "id": "ZIGZAGSTATION_T",
      "name": "Zig Zag Station",
      "lat": -33.47177615,
      "lon": 150.2020153,
      "code": "ZIGZAG",
      "tfnswStopId": "278630",
      "mode": "train"
    }
  ],
  "branches": [
    {
      "route": "T1",
      "id": "T1_NORTH",
      "stationIds": [
        "BEROWRA_T",
        "MOUNT_COLAH_T",
        "ASQUITH_T",
        "HORNSBY_T",
        "MOUNT_KURINGGAI_T",
        "WAITARA_T",
        "WARRAWEE_T",
        "TURRAMURRA_T",
        "PYMBLE_T",
        "GORDON_T",
        "KILLARA_T",
        "LINDFIELD_T",
        "ROSEVILLE_T",
        "CHATSWOOD_T",
        "ARTARMON_T",
        "STLEONARDS_T",
        "WOLLSTONECRAFT_T",
        "WAVERTON_T",
        "NORTHSYDNEY_T",
        "MILSONS_POINT_T",
        "WYNYARD_T",
        "TOWNHALL_T",
        "CENTRAL_T"
      ]
    },
    {
      "route": "T1",
      "id": "T1_CITY_CW",
      "stationIds": [
        "CENTRAL_T",
        "MUSEUM_T",
        "STJAMES_T",
        "CIRCULARQUAY_T",
        "WYNYARD_T",
        "TOWNHALL_T"
      ]
    },
    {
      "route": "T1",
      "id": "T1_CITY_CCW",
      "stationIds": [
        "CENTRAL_T",
        "TOWNHALL_T",
        "WYNYARD_T",
        "CIRCULARQUAY_T",
        "STJAMES_T",
        "MUSEUM_T"
      ]
    },
    {
      "route": "T1",
      "id": "T1_WEST",
      "stationIds": [
        "CENTRAL_T",
        "REDFERN_T",
        "STRATHFIELD_T",
        "PARRAMATTA_T",
        "WESTMEAD_T",
        "BLACKTOWN_T",
        "MOUNT_DRUITT_T",
        "ST_MARYS_T",
        "PENRITH_T",
        "EMU_PLAINS_T"
      ]
    },
    {
      "route": "T1",
      "id": "T1_RICHMOND",
      "stationIds": [
        "BLACKTOWN_T",
        "MARAYONG_T",
        "QUAKERS_HILL_T",
        "SCHOFIELDS_T",
        "RIVERSTONE_T",
        "RICHMOND_T"
      ]
    },
    {
      "route": "T2",
      "id": "T2_LEPP",
      "stationIds": [
        "CENTRAL_T",
        "REDFERN_T",
        "STRATHFIELD_T",
        "FLEMINGTON_T",
        "LIDCOMBE_T",
        "AUBURN_T",
        "CLYDESTATION_T",
        "GRANVILLE_T",
        "MERRYLANDS_T",
        "GUILDFORDSTATION_T",
        "YENNORASTATION_T",
        "FAIRFIELDSTATION_T",
        "CANLEYVALESTATION_T",
        "CABRAMATTA_T",
        "WARWICK_FARM_T",
        "LIVERPOOL_T",
        "CASULA_T",
        "GLENFIELD_T",
        "EDMONSON_PARK_T",
        "LEPPINGTON_T"
      ]
    },
    {
      "route": "T2",
      "id": "T2_PARRA",
      "stationIds": [
        "GRANVILLE_T",
        "HARRISPARKSTATION_T",
        "PARRAMATTA_T"
      ]
    },
    {
      "route": "T2",
      "id": "T2_INNER",
      "stationIds": [
        "CENTRAL_T",
        "REDFERN_T",
        "STRATHFIELD_T",
        "BURWOOD_T",
        "ASHFIELD_T",
        "CROYDON_T",
        "ENFIELD_T",
        "LIDCOMBE_T",
        "AUBURN_T",
        "GRANVILLE_T",
        "PARRAMATTA_T"
      ]
    },
    {
      "route": "T3",
      "id": "T3_LIVERPOOL",
      "stationIds": [
        "CENTRAL_T",
        "REDFERN_T",
        "LIDCOMBE_T",
        "FLEMINGTON_T",
        "AUBURN_T",
        "REGENTS_PARK_T",
        "BEXLEY_NORTH_T",
        "BARDWELL_PARK_T",
        "BANKSTOWN_T",
        "VILLAWOOD_T",
        "CARRAMAR_T",
        "CABRAMATTA_T",
        "LIVERPOOL_T",
        "WARWICK_FARM_T"
      ]
    },
    {
      "route": "T4",
      "id": "T4_ILLAWARRA",
      "stationIds": [
        "CENTRAL_T",
        "REDFERN_T",
        "GREEN_SQUARE_T",
        "MASCOT_T",
        "WOLLI_CREEK_T",
        "TEMPE_T",
        "ARNCLIFFE_T",
        "ROCKDALE_T",
        "KOGARAH_T",
        "CARLTON_T",
        "ALLAWAH_T",
        "HURSTVILLE_T",
        "PENSHURST_T",
        "MORTDALE_T",
        "OATLEY_T",
        "COMO_T",
        "JANNALI_T",
        "SUTHERLAND_T",
        "LOFTUS_T",
        "ENGADINE_T",
        "HEATHCOTE_T",
        "WATERFALL_T",
        "KIRRAWEE_T",
        "GYMEA_T",
        "MIRANDA_T",
        "CARINGBAH_T",
        "CRONULLA_T"
      ]
    },
    {
      "route": "T4",
      "id": "T4_EASTERN",
      "stationIds": [
        "CENTRAL_T",
        "MUSEUM_T",
        "STJAMES_T",
        "MARTINPLACE_T",
        "KINGS_CROSS_T",
        "EDGECLIFF_T",
        "BONDI_T"
      ]
    },
    {
      "route": "T5",
      "id": "T5_CUMBERLAND",
      "stationIds": [
        "RICHMOND_T",
        "RIVERSTONE_T",
        "SCHOFIELDS_T",
        "QUAKERS_HILL_T",
        "MARAYONG_T",
        "BLACKTOWN_T",
        "PARRAMATTA_T",
        "GRANVILLE_T",
        "LIDCOMBE_T",
        "FLEMINGTON_T",
        "STRATHFIELD_T",
        "LEPPINGTON_T"
      ]
    },
    {
      "route": "T7",
      "id": "T7_OLYMPIC",
      "stationIds": [
        "CENTRAL_T",
        "REDFERN_T",
        "LIDCOMBE_T",
        "OLYMPIC_PARK_T"
      ]
    },
    {
      "route": "T8",
      "id": "T8_AIRPORT",
      "stationIds": [
        "CENTRAL_T",
        "GREEN_SQUARE_T",
        "MASCOT_T",
        "AIRPORT_DOM_T",
        "AIRPORT_INT_T"
      ]
    },
    {
      "route": "T8",
      "id": "T8_SOUTH",
      "stationIds": [
        "CENTRAL_T",
        "REDFERN_T",
        "WOLLI_CREEK_T",
        "TEMPE_T",
        "ARNCLIFFE_T",
        "ROCKDALE_T",
        "BEXLEY_T",
        "KINGSGROVE_T",
        "BEVERLY_HILLS_T",
        "NARWEE_T",
        "RIVERWOOD_T",
        "PADSTOW_T",
        "REVESBY_T",
        "PANANIA_T",
        "EAST_HILLS_T",
        "MACQUARIE_FIELDS_T",
        "CAMPBELLTOWN_T",
        "MACARTHUR_T"
      ]
    },
    {
      "route": "T9",
      "id": "T9_NORTHERN",
      "stationIds": [
        "CENTRAL_T",
        "STRATHFIELD_T",
        "RHODES_T",
        "MEADOWBANK_T",
        "WEST_RYDE_T",
        "EASTWOOD_T",
        "EPPING_T",
        "HORNSBY_T",
        "GORDON_T",
        "CHATSWOOD_T",
        "NORTHSYDNEY_T"
      ]
    },
    {
      "route": "CCN",
      "id": "CCN_COAST",
      "stationIds": [
        "CENTRAL_T",
        "STRATHFIELD_T",
        "EPPING_T",
        "HORNSBY_T",
        "COWAN_T",
        "HAWKESBURY_RIVER_T",
        "GOSFORD_T",
        "WYONG_T",
        "NEWCASTLE_T"
      ]
    },
    {
      "route": "BMT",
      "id": "BMT_MOUNTAINS",
      "stationIds": [
        "CENTRAL_T",
        "STRATHFIELD_T",
        "PARRAMATTA_T",
        "BLACKTOWN_T",
        "PENRITH_T",
        "KATOOMBA_T",
        "LITHGOW_T"
      ]
    },
    {
      "route": "SCO",
      "id": "SCO_ILLAWARRA",
      "stationIds": [
        "CENTRAL_T",
        "HURSTVILLE_T",
        "SUTHERLAND_T",
        "WOLLONGONG_T",
        "KIAMA_T"
      ]
    },
    {
      "id": "gtfs_T9_2_T9_sj2_1_1",
      "route": "T9",
      "name": "T9 Northern Line (GTFS dir 1)",
      "color": "#D11F2F",
      "stationIds": [
        "BEROWRA_T",
        "MOUNT_KURINGGAI_T",
        "MOUNT_COLAH_T",
        "ASQUITH_T",
        "HORNSBY_T",
        "WAITARA_T",
        "WAHROONGASTATION_T",
        "WARRAWEE_T",
        "TURRAMURRA_T",
        "PYMBLE_T",
        "GORDON_T",
        "KILLARA_T",
        "LINDFIELD_T",
        "ROSEVILLE_T",
        "CHATSWOOD_T",
        "ARTARMON_T",
        "STLEONARDS_T",
        "WOLLSTONECRAFT_T",
        "WAVERTON_T",
        "NORTHSYDNEY_T",
        "MILSONS_POINT_T",
        "WYNYARD_T",
        "TOWNHALL_T",
        "CENTRAL_T"
      ]
    },
    {
      "id": "gtfs_T1_2_T1_N_sj2_1_1",
      "route": "T1",
      "name": "T1 North Shore and Western Line (GTFS dir 1)",
      "color": "#F99D1C",
      "stationIds": [
        "BEROWRA_T",
        "MOUNT_KURINGGAI_T",
        "MOUNT_COLAH_T",
        "ASQUITH_T",
        "HORNSBY_T",
        "WAITARA_T",
        "WAHROONGASTATION_T",
        "WARRAWEE_T",
        "TURRAMURRA_T",
        "PYMBLE_T",
        "GORDON_T",
        "KILLARA_T",
        "LINDFIELD_T",
        "ROSEVILLE_T",
        "CHATSWOOD_T",
        "ARTARMON_T",
        "STLEONARDS_T",
        "WOLLSTONECRAFT_T",
        "WAVERTON_T",
        "NORTHSYDNEY_T",
        "MILSONS_POINT_T",
        "WYNYARD_T",
        "TOWNHALL_T",
        "CENTRAL_T"
      ]
    },
    {
      "id": "gtfs_T9_2_T9_sj2_1_0",
      "route": "T9",
      "name": "T9 Northern Line (GTFS dir 0)",
      "color": "#D11F2F",
      "stationIds": [
        "CENTRAL_T",
        "REDFERN_T",
        "BURWOOD_T",
        "STRATHFIELD_T",
        "NORTHSTRATHFIELDSTATION_T",
        "CONCORDWESTSTATION_T",
        "RHODES_T",
        "MEADOWBANK_T",
        "WEST_RYDE_T",
        "DENISTONESTATION_T",
        "EASTWOOD_T",
        "EPPING_T",
        "CHELTENHAMSTATION_T",
        "BEECROFTSTATION_T",
        "PENNANTHILLSSTATION_T",
        "THORNLEIGHSTATION_T",
        "NORMANHURSTSTATION_T",
        "HORNSBY_T",
        "ASQUITH_T",
        "MOUNT_COLAH_T",
        "MOUNT_KURINGGAI_T",
        "BEROWRA_T"
      ]
    },
    {
      "id": "gtfs_T1_2_T1_W_sj2_1_0",
      "route": "T1",
      "name": "T1 North Shore and Western Line (GTFS dir 0)",
      "color": "#F99D1C",
      "stationIds": [
        "CENTRAL_T",
        "REDFERN_T",
        "STRATHFIELD_T",
        "FLEMINGTON_T",
        "LIDCOMBE_T",
        "AUBURN_T",
        "CLYDESTATION_T",
        "GRANVILLE_T",
        "HARRISPARKSTATION_T",
        "PARRAMATTA_T",
        "WESTMEAD_T",
        "WENTWORTHVILLESTATION_T",
        "PENDLEHILLSTATION_T",
        "TOONGABBIESTATION_T",
        "SEVENHILLSSTATION_T",
        "BLACKTOWN_T",
        "DOONSIDESTATION_T",
        "ROOTYHILLSTATION_T",
        "MOUNT_DRUITT_T",
        "ST_MARYS_T",
        "WERRINGTONSTATION_T",
        "KINGSWOODSTATION_T",
        "PENRITH_T"
      ]
    },
    {
      "id": "gtfs_T1_2_T1_W_sj2_1_1",
      "route": "T1",
      "name": "T1 North Shore and Western Line (GTFS dir 1)",
      "color": "#F99D1C",
      "stationIds": [
        "EMU_PLAINS_T",
        "PENRITH_T",
        "KINGSWOODSTATION_T",
        "WERRINGTONSTATION_T",
        "ST_MARYS_T",
        "MOUNT_DRUITT_T",
        "ROOTYHILLSTATION_T",
        "DOONSIDESTATION_T",
        "BLACKTOWN_T",
        "SEVENHILLSSTATION_T",
        "TOONGABBIESTATION_T",
        "PENDLEHILLSTATION_T",
        "WENTWORTHVILLESTATION_T",
        "WESTMEAD_T",
        "PARRAMATTA_T",
        "HARRISPARKSTATION_T",
        "GRANVILLE_T",
        "AUBURN_T",
        "LIDCOMBE_T",
        "STRATHFIELD_T",
        "BURWOOD_T",
        "REDFERN_T",
        "CENTRAL_T"
      ]
    },
    {
      "id": "gtfs_T1_2_T1_N_sj2_1_0",
      "route": "T1",
      "name": "T1 North Shore and Western Line (GTFS dir 0)",
      "color": "#F99D1C",
      "stationIds": [
        "CENTRAL_T",
        "TOWNHALL_T",
        "WYNYARD_T",
        "MILSONS_POINT_T",
        "NORTHSYDNEY_T",
        "WAVERTON_T",
        "WOLLSTONECRAFT_T",
        "STLEONARDS_T",
        "ARTARMON_T",
        "CHATSWOOD_T",
        "ROSEVILLE_T",
        "LINDFIELD_T",
        "KILLARA_T",
        "GORDON_T",
        "PYMBLE_T",
        "TURRAMURRA_T",
        "WARRAWEE_T",
        "WAHROONGASTATION_T",
        "WAITARA_T",
        "HORNSBY_T",
        "ASQUITH_T",
        "MOUNT_COLAH_T",
        "MOUNT_KURINGGAI_T",
        "BEROWRA_T"
      ]
    },
    {
      "id": "gtfs_T7_2_T7_sj2_1_0",
      "route": "T7",
      "name": "T7 Olympic Park Line (GTFS dir 0)",
      "color": "#6F818E",
      "stationIds": [
        "CENTRAL_T",
        "MUSEUM_T",
        "STJAMES_T",
        "CIRCULARQUAY_T",
        "WYNYARD_T",
        "TOWNHALL_T",
        "CENTRAL_T",
        "REDFERN_T",
        "MACDONALDTOWNSTATION_T",
        "NEWTOWNSTATION_T",
        "STANMORESTATION_T",
        "PETERSHAMSTATION_T",
        "LEWISHAMSTATION_T",
        "SUMMERHILLSTATION_T",
        "ASHFIELD_T",
        "CROYDON_T",
        "BURWOOD_T",
        "STRATHFIELD_T",
        "HOMEBUSH_T",
        "OLYMPIC_PARK_T"
      ]
    },
    {
      "id": "gtfs_T5_2_T5_sj2_1_0",
      "route": "T5",
      "name": "T5 Cumberland Line (GTFS dir 0)",
      "color": "#C4258F",
      "stationIds": [
        "LEPPINGTON_T",
        "EDMONSON_PARK_T",
        "GLENFIELD_T",
        "CASULA_T",
        "LIVERPOOL_T",
        "WARWICK_FARM_T",
        "CABRAMATTA_T",
        "CANLEYVALESTATION_T",
        "FAIRFIELDSTATION_T",
        "YENNORASTATION_T",
        "GUILDFORDSTATION_T",
        "MERRYLANDS_T",
        "HARRISPARKSTATION_T",
        "PARRAMATTA_T",
        "WESTMEAD_T",
        "WENTWORTHVILLESTATION_T",
        "PENDLEHILLSTATION_T",
        "TOONGABBIESTATION_T",
        "SEVENHILLSSTATION_T",
        "BLACKTOWN_T",
        "MARAYONG_T",
        "QUAKERS_HILL_T",
        "SCHOFIELDS_T",
        "RIVERSTONE_T",
        "VINEYARDSTATION_T",
        "MULGRAVESTATION_T",
        "WINDSORSTATION_T",
        "CLARENDONSTATION_T",
        "EASTRICHMONDSTATION_T",
        "RICHMOND_T"
      ]
    },
    {
      "id": "gtfs_T5_2_T5_sj2_1_1",
      "route": "T5",
      "name": "T5 Cumberland Line (GTFS dir 1)",
      "color": "#C4258F",
      "stationIds": [
        "RICHMOND_T",
        "EASTRICHMONDSTATION_T",
        "CLARENDONSTATION_T",
        "WINDSORSTATION_T",
        "MULGRAVESTATION_T",
        "VINEYARDSTATION_T",
        "RIVERSTONE_T",
        "SCHOFIELDS_T",
        "QUAKERS_HILL_T",
        "MARAYONG_T",
        "BLACKTOWN_T",
        "SEVENHILLSSTATION_T",
        "TOONGABBIESTATION_T",
        "PENDLEHILLSTATION_T",
        "WENTWORTHVILLESTATION_T",
        "WESTMEAD_T",
        "PARRAMATTA_T",
        "HARRISPARKSTATION_T",
        "MERRYLANDS_T",
        "GUILDFORDSTATION_T",
        "YENNORASTATION_T",
        "FAIRFIELDSTATION_T",
        "CANLEYVALESTATION_T",
        "CABRAMATTA_T",
        "WARWICK_FARM_T",
        "LIVERPOOL_T",
        "CASULA_T",
        "GLENFIELD_T",
        "EDMONSON_PARK_T",
        "LEPPINGTON_T"
      ]
    },
    {
      "id": "gtfs_T3_2_T3_sj2_1_1",
      "route": "T3",
      "name": "T3 Liverpool and Inner West Line (GTFS dir 1)",
      "color": "#F37021",
      "stationIds": [
        "LIVERPOOL_T",
        "WARWICK_FARM_T",
        "CABRAMATTA_T",
        "CARRAMAR_T",
        "VILLAWOOD_T",
        "LEIGHTONFIELDSTATION_T",
        "CHESTERHILLSTATION_T",
        "SEFTONSTATION_T",
        "REGENTS_PARK_T",
        "BERALASTATION_T",
        "LIDCOMBE_T",
        "FLEMINGTON_T",
        "HOMEBUSH_T",
        "STRATHFIELD_T",
        "BURWOOD_T",
        "CROYDON_T",
        "ASHFIELD_T",
        "SUMMERHILLSTATION_T",
        "LEWISHAMSTATION_T",
        "PETERSHAMSTATION_T",
        "STANMORESTATION_T",
        "NEWTOWNSTATION_T",
        "MACDONALDTOWNSTATION_T",
        "REDFERN_T",
        "CENTRAL_T"
      ]
    },
    {
      "id": "gtfs_T2_2_T2_sj2_1_0",
      "route": "T2",
      "name": "T2 Leppington and Inner West Line (GTFS dir 0)",
      "color": "#0098CD",
      "stationIds": [
        "CENTRAL_T",
        "MUSEUM_T",
        "STJAMES_T",
        "CIRCULARQUAY_T",
        "WYNYARD_T",
        "TOWNHALL_T",
        "CENTRAL_T",
        "REDFERN_T",
        "NEWTOWNSTATION_T",
        "LEWISHAMSTATION_T",
        "SUMMERHILLSTATION_T",
        "ASHFIELD_T",
        "CROYDON_T",
        "BURWOOD_T",
        "STRATHFIELD_T",
        "FLEMINGTON_T",
        "LIDCOMBE_T",
        "AUBURN_T",
        "CLYDESTATION_T",
        "GRANVILLE_T",
        "MERRYLANDS_T",
        "GUILDFORDSTATION_T",
        "YENNORASTATION_T",
        "FAIRFIELDSTATION_T",
        "CANLEYVALESTATION_T",
        "CABRAMATTA_T",
        "WARWICK_FARM_T",
        "LIVERPOOL_T",
        "CASULA_T",
        "GLENFIELD_T",
        "EDMONSON_PARK_T",
        "LEPPINGTON_T"
      ]
    },
    {
      "id": "gtfs_T8_2_T8_sj2_1_1",
      "route": "T8",
      "name": "T8 Airport and South Line (GTFS dir 1)",
      "color": "#00954C",
      "stationIds": [
        "MACARTHUR_T",
        "CAMPBELLTOWN_T",
        "LEUMEAHSTATION_T",
        "MINTOSTATION_T",
        "INGLEBURNSTATION_T",
        "MACQUARIE_FIELDS_T",
        "GLENFIELD_T",
        "HOLSWORTHYSTATION_T",
        "EAST_HILLS_T",
        "PANANIA_T",
        "REVESBY_T",
        "PADSTOW_T",
        "RIVERWOOD_T",
        "NARWEE_T",
        "BEVERLY_HILLS_T",
        "KINGSGROVE_T",
        "BEXLEY_NORTH_T",
        "BARDWELL_PARK_T",
        "TURRELLASTATION_T",
        "WOLLI_CREEK_T",
        "AIRPORT_INT_T",
        "AIRPORT_DOM_T",
        "MASCOT_T",
        "GREEN_SQUARE_T",
        "CENTRAL_T"
      ]
    },
    {
      "id": "gtfs_T2_2_T2_sj2_1_1",
      "route": "T2",
      "name": "T2 Leppington and Inner West Line (GTFS dir 1)",
      "color": "#0098CD",
      "stationIds": [
        "LEPPINGTON_T",
        "EDMONSON_PARK_T",
        "GLENFIELD_T",
        "CASULA_T",
        "LIVERPOOL_T",
        "WARWICK_FARM_T",
        "CABRAMATTA_T",
        "CANLEYVALESTATION_T",
        "FAIRFIELDSTATION_T",
        "YENNORASTATION_T",
        "GUILDFORDSTATION_T",
        "MERRYLANDS_T",
        "GRANVILLE_T",
        "CLYDESTATION_T",
        "AUBURN_T",
        "LIDCOMBE_T",
        "FLEMINGTON_T",
        "STRATHFIELD_T",
        "BURWOOD_T",
        "CROYDON_T",
        "ASHFIELD_T",
        "SUMMERHILLSTATION_T",
        "LEWISHAMSTATION_T",
        "NEWTOWNSTATION_T",
        "REDFERN_T",
        "CENTRAL_T"
      ]
    },
    {
      "id": "gtfs_T8_2_T8_sj2_1_0",
      "route": "T8",
      "name": "T8 Airport and South Line (GTFS dir 0)",
      "color": "#00954C",
      "stationIds": [
        "CENTRAL_T",
        "TOWNHALL_T",
        "WYNYARD_T",
        "CIRCULARQUAY_T",
        "STJAMES_T",
        "MUSEUM_T",
        "CENTRAL_T",
        "GREEN_SQUARE_T",
        "MASCOT_T",
        "AIRPORT_DOM_T",
        "AIRPORT_INT_T",
        "WOLLI_CREEK_T",
        "TURRELLASTATION_T",
        "BARDWELL_PARK_T",
        "BEXLEY_NORTH_T",
        "KINGSGROVE_T",
        "BEVERLY_HILLS_T",
        "NARWEE_T",
        "RIVERWOOD_T",
        "PADSTOW_T",
        "REVESBY_T",
        "PANANIA_T",
        "EAST_HILLS_T",
        "HOLSWORTHYSTATION_T",
        "GLENFIELD_T",
        "MACQUARIE_FIELDS_T",
        "INGLEBURNSTATION_T",
        "MINTOSTATION_T",
        "LEUMEAHSTATION_T",
        "CAMPBELLTOWN_T",
        "MACARTHUR_T"
      ]
    },
    {
      "id": "gtfs_T3_2_T3_sj2_1_0",
      "route": "T3",
      "name": "T3 Liverpool and Inner West Line (GTFS dir 0)",
      "color": "#F37021",
      "stationIds": [
        "CENTRAL_T",
        "TOWNHALL_T",
        "WYNYARD_T",
        "CIRCULARQUAY_T",
        "STJAMES_T",
        "MUSEUM_T",
        "CENTRAL_T",
        "REDFERN_T",
        "MACDONALDTOWNSTATION_T",
        "NEWTOWNSTATION_T",
        "STANMORESTATION_T",
        "PETERSHAMSTATION_T",
        "LEWISHAMSTATION_T",
        "SUMMERHILLSTATION_T",
        "ASHFIELD_T",
        "CROYDON_T",
        "BURWOOD_T",
        "STRATHFIELD_T",
        "HOMEBUSH_T",
        "FLEMINGTON_T",
        "LIDCOMBE_T",
        "BERALASTATION_T",
        "REGENTS_PARK_T",
        "SEFTONSTATION_T",
        "CHESTERHILLSTATION_T",
        "LEIGHTONFIELDSTATION_T",
        "VILLAWOOD_T",
        "CARRAMAR_T",
        "CABRAMATTA_T",
        "WARWICK_FARM_T",
        "LIVERPOOL_T",
        "CASULA_T",
        "GLENFIELD_T",
        "MACQUARIE_FIELDS_T",
        "INGLEBURNSTATION_T",
        "MINTOSTATION_T",
        "LEUMEAHSTATION_T",
        "CAMPBELLTOWN_T",
        "MACARTHUR_T"
      ]
    },
    {
      "id": "gtfs_CCN_2_CCN_sj2_1_1",
      "route": "CCN",
      "name": "Central Coast and Newcastle Line (GTFS dir 1)",
      "color": "#D11F2F",
      "stationIds": [
        "NEWCASTLE_T",
        "HAMILTONSTATION_T",
        "BROADMEADOWSTATION_T",
        "ADAMSTOWNSTATION_T",
        "KOTARASTATION_T",
        "CARDIFFSTATION_T",
        "COCKLECREEKSTATION_T",
        "TERALBASTATION_T",
        "BOORAGULSTATION_T",
        "FASSIFERNSTATION_T",
        "AWABASTATION_T",
        "DORACREEKSTATION_T",
        "MORISSETSTATION_T",
        "WYEESTATION_T",
        "WARNERVALESTATION_T",
        "WYONG_T",
        "TUGGERAHSTATION_T",
        "OURIMBAHSTATION_T",
        "LISAROWSTATION_T",
        "NIAGARAPARKSTATION_T",
        "NARARASTATION_T",
        "GOSFORD_T",
        "POINTCLARESTATION_T",
        "TASCOTTSTATION_T",
        "KOOLEWONGSTATION_T",
        "WOYWOYSTATION_T",
        "HAWKESBURY_RIVER_T",
        "COWAN_T",
        "BEROWRA_T",
        "MOUNT_KURINGGAI_T",
        "MOUNT_COLAH_T",
        "ASQUITH_T",
        "HORNSBY_T",
        "EPPING_T",
        "STRATHFIELD_T",
        "CENTRAL_T"
      ]
    },
    {
      "id": "gtfs_CCN_2_CCN_sj2_1_0",
      "route": "CCN",
      "name": "Central Coast and Newcastle Line (GTFS dir 0)",
      "color": "#D11F2F",
      "stationIds": [
        "CENTRAL_T",
        "STRATHFIELD_T",
        "EPPING_T",
        "HORNSBY_T",
        "ASQUITH_T",
        "MOUNT_COLAH_T",
        "MOUNT_KURINGGAI_T",
        "BEROWRA_T",
        "COWAN_T",
        "HAWKESBURY_RIVER_T",
        "WONDABYNESTATION_T",
        "WOYWOYSTATION_T",
        "KOOLEWONGSTATION_T",
        "TASCOTTSTATION_T",
        "POINTCLARESTATION_T",
        "GOSFORD_T",
        "NARARASTATION_T",
        "NIAGARAPARKSTATION_T",
        "LISAROWSTATION_T",
        "OURIMBAHSTATION_T",
        "TUGGERAHSTATION_T",
        "WYONG_T",
        "WARNERVALESTATION_T",
        "WYEESTATION_T",
        "MORISSETSTATION_T",
        "DORACREEKSTATION_T",
        "AWABASTATION_T",
        "FASSIFERNSTATION_T",
        "BOORAGULSTATION_T",
        "TERALBASTATION_T",
        "COCKLECREEKSTATION_T",
        "CARDIFFSTATION_T",
        "KOTARASTATION_T",
        "ADAMSTOWNSTATION_T",
        "BROADMEADOWSTATION_T",
        "HAMILTONSTATION_T",
        "NEWCASTLE_T"
      ]
    },
    {
      "id": "gtfs_SCO_2_SCO_sj2_1_1",
      "route": "SCO",
      "name": "South Coast Line (GTFS dir 1)",
      "color": "#005AA3",
      "stationIds": [
        "KIAMA_T",
        "BOMBOSTATION_T",
        "MINNAMURRASTATION_T",
        "SHELLHARBOURJUNCTIONSTATION_T",
        "OAKFLATSSTATION_T",
        "ALBIONPARKSTATION_T",
        "DAPTOSTATION_T",
        "UNANDERRASTATION_T",
        "CONISTONSTATION_T",
        "WOLLONGONG_T",
        "NORTHWOLLONGONGSTATION_T",
        "FAIRYMEADOWSTATION_T",
        "TOWRADGISTATION_T",
        "CORRIMALSTATION_T",
        "BELLAMBISTATION_T",
        "WOONONASTATION_T",
        "BULLISTATION_T",
        "THIRROULSTATION_T",
        "AUSTINMERSTATION_T",
        "COLEDALESTATION_T",
        "WOMBARRASTATION_T",
        "SCARBOROUGHSTATION_T",
        "COALCLIFFSTATION_T",
        "STANWELLPARKSTATION_T",
        "OTFORDSTATION_T",
        "HELENSBURGHSTATION_T",
        "WATERFALL_T",
        "SUTHERLAND_T",
        "HURSTVILLE_T",
        "WOLLI_CREEK_T",
        "SYDENHAMSTATION_T",
        "REDFERN_T",
        "CENTRAL_T",
        "TOWNHALL_T",
        "MARTINPLACE_T",
        "KINGS_CROSS_T",
        "EDGECLIFF_T",
        "BONDI_T"
      ]
    },
    {
      "id": "gtfs_SCO_2_SCO_sj2_1_0",
      "route": "SCO",
      "name": "South Coast Line (GTFS dir 0)",
      "color": "#005AA3",
      "stationIds": [
        "BONDI_T",
        "EDGECLIFF_T",
        "KINGS_CROSS_T",
        "MARTINPLACE_T",
        "TOWNHALL_T",
        "CENTRAL_T",
        "REDFERN_T",
        "WOLLI_CREEK_T",
        "HURSTVILLE_T",
        "SUTHERLAND_T",
        "LOFTUS_T",
        "ENGADINE_T",
        "HEATHCOTE_T",
        "WATERFALL_T",
        "HELENSBURGHSTATION_T",
        "OTFORDSTATION_T",
        "STANWELLPARKSTATION_T",
        "COALCLIFFSTATION_T",
        "SCARBOROUGHSTATION_T",
        "WOMBARRASTATION_T",
        "COLEDALESTATION_T",
        "AUSTINMERSTATION_T",
        "THIRROULSTATION_T",
        "BULLISTATION_T",
        "WOONONASTATION_T",
        "BELLAMBISTATION_T",
        "CORRIMALSTATION_T",
        "TOWRADGISTATION_T",
        "FAIRYMEADOWSTATION_T",
        "NORTHWOLLONGONGSTATION_T",
        "WOLLONGONG_T",
        "CONISTONSTATION_T",
        "UNANDERRASTATION_T",
        "DAPTOSTATION_T",
        "ALBIONPARKSTATION_T",
        "OAKFLATSSTATION_T",
        "SHELLHARBOURJUNCTIONSTATION_T",
        "MINNAMURRASTATION_T",
        "BOMBOSTATION_T",
        "KIAMA_T"
      ]
    },
    {
      "id": "gtfs_T4_2_T4_sj2_1_0",
      "route": "T4",
      "name": "T4 Eastern Suburbs and Illawarra Line (GTFS dir 0)",
      "color": "#005AA3",
      "stationIds": [
        "CENTRAL_T",
        "MUSEUM_T",
        "STJAMES_T",
        "CIRCULARQUAY_T",
        "WYNYARD_T",
        "TOWNHALL_T",
        "CENTRAL_T",
        "REDFERN_T",
        "ERSKINEVILLESTATION_T",
        "STPETERSSTATION_T",
        "SYDENHAMSTATION_T",
        "TEMPE_T",
        "ARNCLIFFE_T",
        "BANKSIASTATION_T",
        "ROCKDALE_T",
        "KOGARAH_T",
        "CARLTON_T",
        "ALLAWAH_T",
        "HURSTVILLE_T",
        "PENSHURST_T",
        "MORTDALE_T",
        "OATLEY_T",
        "COMO_T",
        "JANNALI_T",
        "SUTHERLAND_T",
        "KIRRAWEE_T",
        "GYMEA_T",
        "MIRANDA_T",
        "CARINGBAH_T",
        "WOOLOOWARESTATION_T",
        "CRONULLA_T"
      ]
    },
    {
      "id": "gtfs_T4_2_T4_sj2_1_1",
      "route": "T4",
      "name": "T4 Eastern Suburbs and Illawarra Line (GTFS dir 1)",
      "color": "#005AA3",
      "stationIds": [
        "CRONULLA_T",
        "WOOLOOWARESTATION_T",
        "CARINGBAH_T",
        "MIRANDA_T",
        "GYMEA_T",
        "KIRRAWEE_T",
        "SUTHERLAND_T",
        "JANNALI_T",
        "COMO_T",
        "OATLEY_T",
        "MORTDALE_T",
        "PENSHURST_T",
        "HURSTVILLE_T",
        "ALLAWAH_T",
        "CARLTON_T",
        "KOGARAH_T",
        "ROCKDALE_T",
        "BANKSIASTATION_T",
        "ARNCLIFFE_T",
        "WOLLI_CREEK_T",
        "TEMPE_T",
        "SYDENHAMSTATION_T",
        "REDFERN_T",
        "CENTRAL_T",
        "TOWNHALL_T",
        "MARTINPLACE_T",
        "KINGS_CROSS_T",
        "EDGECLIFF_T",
        "BONDI_T"
      ]
    },
    {
      "id": "gtfs_T6_2_T6_sj2_1_0",
      "route": "T6",
      "name": "T6 Lidcombe and Bankstown Line (GTFS dir 0)",
      "color": "#F6891F",
      "stationIds": [
        "LIDCOMBE_T",
        "BERALASTATION_T",
        "REGENTS_PARK_T",
        "BIRRONGSTATION_T",
        "YAGOONASTATION_T",
        "BANKSTOWN_T"
      ]
    },
    {
      "id": "gtfs_T6_2_T6_sj2_1_1",
      "route": "T6",
      "name": "T6 Lidcombe and Bankstown Line (GTFS dir 1)",
      "color": "#F6891F",
      "stationIds": [
        "BANKSTOWN_T",
        "YAGOONASTATION_T",
        "BIRRONGSTATION_T",
        "REGENTS_PARK_T",
        "BERALASTATION_T",
        "LIDCOMBE_T"
      ]
    },
    {
      "id": "gtfs_T7_2_T7_sj2_1_1",
      "route": "T7",
      "name": "T7 Olympic Park Line (GTFS dir 1)",
      "color": "#6F818E",
      "stationIds": [
        "BLACKTOWN_T",
        "SEVENHILLSSTATION_T",
        "TOONGABBIESTATION_T",
        "PENDLEHILLSTATION_T",
        "WENTWORTHVILLESTATION_T",
        "WESTMEAD_T",
        "PARRAMATTA_T",
        "HARRISPARKSTATION_T",
        "GRANVILLE_T",
        "AUBURN_T",
        "LIDCOMBE_T",
        "OLYMPIC_PARK_T"
      ]
    },
    {
      "id": "gtfs_BMT_2_BMT_sj2_1_1",
      "route": "BMT",
      "name": "Blue Mountains Line (GTFS dir 1)",
      "color": "#F99D1C",
      "stationIds": [
        "LITHGOW_T",
        "BELLSTATION_T",
        "MOUNTVICTORIASTATION_T",
        "BLACKHEATHSTATION_T",
        "MEDLOWBATHSTATION_T",
        "KATOOMBA_T",
        "LEURASTATION_T",
        "WENTWORTHFALLSSTATION_T",
        "BULLABURRASTATION_T",
        "LAWSONSTATION_T",
        "HAZELBROOKSTATION_T",
        "WOODFORDSTATION_T",
        "LINDENSTATION_T",
        "FAULCONBRIDGESTATION_T",
        "SPRINGWOODSTATION_T",
        "VALLEYHEIGHTSSTATION_T",
        "WARRIMOOSTATION_T",
        "BLAXLANDSTATION_T",
        "GLENBROOKSTATION_T",
        "LAPSTONESTATION_T",
        "EMU_PLAINS_T",
        "PENRITH_T",
        "BLACKTOWN_T",
        "PARRAMATTA_T",
        "STRATHFIELD_T",
        "REDFERN_T",
        "CENTRAL_T"
      ]
    },
    {
      "id": "gtfs_BMT_2_BMT_sj2_1_0",
      "route": "BMT",
      "name": "Blue Mountains Line (GTFS dir 0)",
      "color": "#F99D1C",
      "stationIds": [
        "CENTRAL_T",
        "STRATHFIELD_T",
        "PARRAMATTA_T",
        "BLACKTOWN_T",
        "PENRITH_T",
        "EMU_PLAINS_T",
        "LAPSTONESTATION_T",
        "GLENBROOKSTATION_T",
        "BLAXLANDSTATION_T",
        "WARRIMOOSTATION_T",
        "VALLEYHEIGHTSSTATION_T",
        "SPRINGWOODSTATION_T",
        "FAULCONBRIDGESTATION_T",
        "LINDENSTATION_T",
        "WOODFORDSTATION_T",
        "HAZELBROOKSTATION_T",
        "LAWSONSTATION_T",
        "BULLABURRASTATION_T",
        "WENTWORTHFALLSSTATION_T",
        "LEURASTATION_T",
        "KATOOMBA_T",
        "MEDLOWBATHSTATION_T",
        "BLACKHEATHSTATION_T",
        "MOUNTVICTORIASTATION_T",
        "BELLSTATION_T",
        "ZIGZAGSTATION_T",
        "LITHGOW_T"
      ]
    },
    {
      "id": "gtfs_SCO_76_SCO_sj2_1_0",
      "route": "SCO",
      "name": "South Coast Line (GTFS dir 0)",
      "color": "#005AA3",
      "stationIds": [
        "WOLLONGONG_T",
        "KIAMA_T",
        "GERRINGONGSTATION_T",
        "BERRYSTATION_T",
        "BOMADERRYSTATION_T"
      ]
    },
    {
      "id": "gtfs_SCO_76_SCO_sj2_1_1",
      "route": "SCO",
      "name": "South Coast Line (GTFS dir 1)",
      "color": "#005AA3",
      "stationIds": [
        "BOMADERRYSTATION_T",
        "BERRYSTATION_T",
        "GERRINGONGSTATION_T",
        "KIAMA_T"
      ]
    },
    {
      "id": "gtfs_BMT_76_BMT_sj2_1_0",
      "route": "BMT",
      "name": "Blue Mountains Line (GTFS dir 0)",
      "color": "#F99D1C",
      "stationIds": [
        "CENTRAL_T",
        "PARRAMATTA_T",
        "WESTMEAD_T",
        "PENRITH_T",
        "SPRINGWOODSTATION_T",
        "KATOOMBA_T",
        "MOUNTVICTORIASTATION_T",
        "LITHGOW_T",
        "RYDALSTATION_T",
        "TARANASTATION_T",
        "BATHURSTSTATION_T"
      ]
    },
    {
      "id": "gtfs_BMT_76_BMT_sj2_1_1",
      "route": "BMT",
      "name": "Blue Mountains Line (GTFS dir 1)",
      "color": "#F99D1C",
      "stationIds": [
        "BATHURSTSTATION_T",
        "TARANASTATION_T",
        "RYDALSTATION_T",
        "LITHGOW_T",
        "MOUNTVICTORIASTATION_T",
        "KATOOMBA_T",
        "SPRINGWOODSTATION_T",
        "PENRITH_T",
        "WESTMEAD_T",
        "PARRAMATTA_T",
        "CENTRAL_T"
      ]
    }
  ],
  "lineStationIds": {
    "T1": [
      "BEROWRA_T",
      "MOUNT_COLAH_T",
      "ASQUITH_T",
      "HORNSBY_T",
      "MOUNT_KURINGGAI_T",
      "WAITARA_T",
      "WARRAWEE_T",
      "TURRAMURRA_T",
      "PYMBLE_T",
      "GORDON_T",
      "KILLARA_T",
      "LINDFIELD_T",
      "ROSEVILLE_T",
      "CHATSWOOD_T",
      "ARTARMON_T",
      "STLEONARDS_T",
      "WOLLSTONECRAFT_T",
      "WAVERTON_T",
      "NORTHSYDNEY_T",
      "MILSONS_POINT_T",
      "WYNYARD_T",
      "TOWNHALL_T",
      "CENTRAL_T",
      "MUSEUM_T",
      "STJAMES_T",
      "CIRCULARQUAY_T",
      "REDFERN_T",
      "STRATHFIELD_T",
      "PARRAMATTA_T",
      "WESTMEAD_T",
      "BLACKTOWN_T",
      "MOUNT_DRUITT_T",
      "ST_MARYS_T",
      "PENRITH_T",
      "EMU_PLAINS_T",
      "MARAYONG_T",
      "QUAKERS_HILL_T",
      "SCHOFIELDS_T",
      "RIVERSTONE_T",
      "RICHMOND_T",
      "WAHROONGASTATION_T",
      "FLEMINGTON_T",
      "LIDCOMBE_T",
      "AUBURN_T",
      "CLYDESTATION_T",
      "GRANVILLE_T",
      "HARRISPARKSTATION_T",
      "WENTWORTHVILLESTATION_T",
      "PENDLEHILLSTATION_T",
      "TOONGABBIESTATION_T",
      "SEVENHILLSSTATION_T",
      "DOONSIDESTATION_T",
      "ROOTYHILLSTATION_T",
      "WERRINGTONSTATION_T",
      "KINGSWOODSTATION_T",
      "BURWOOD_T"
    ],
    "T2": [
      "CENTRAL_T",
      "REDFERN_T",
      "STRATHFIELD_T",
      "LIDCOMBE_T",
      "FLEMINGTON_T",
      "PARRAMATTA_T",
      "GRANVILLE_T",
      "MERRYLANDS_T",
      "LEPPINGTON_T",
      "EDMONSON_PARK_T",
      "BURWOOD_T",
      "ASHFIELD_T",
      "CROYDON_T",
      "ENFIELD_T",
      "AUBURN_T",
      "MUSEUM_T",
      "STJAMES_T",
      "CIRCULARQUAY_T",
      "WYNYARD_T",
      "TOWNHALL_T",
      "NEWTOWNSTATION_T",
      "LEWISHAMSTATION_T",
      "SUMMERHILLSTATION_T",
      "CLYDESTATION_T",
      "GUILDFORDSTATION_T",
      "YENNORASTATION_T",
      "FAIRFIELDSTATION_T",
      "CANLEYVALESTATION_T",
      "CABRAMATTA_T",
      "WARWICK_FARM_T",
      "LIVERPOOL_T",
      "CASULA_T",
      "GLENFIELD_T"
    ],
    "T3": [
      "CENTRAL_T",
      "REDFERN_T",
      "LIDCOMBE_T",
      "FLEMINGTON_T",
      "AUBURN_T",
      "REGENTS_PARK_T",
      "BEXLEY_NORTH_T",
      "BARDWELL_PARK_T",
      "BANKSTOWN_T",
      "VILLAWOOD_T",
      "CARRAMAR_T",
      "CABRAMATTA_T",
      "LIVERPOOL_T",
      "WARWICK_FARM_T",
      "LEIGHTONFIELDSTATION_T",
      "CHESTERHILLSTATION_T",
      "SEFTONSTATION_T",
      "BERALASTATION_T",
      "HOMEBUSH_T",
      "STRATHFIELD_T",
      "BURWOOD_T",
      "CROYDON_T",
      "ASHFIELD_T",
      "SUMMERHILLSTATION_T",
      "LEWISHAMSTATION_T",
      "PETERSHAMSTATION_T",
      "STANMORESTATION_T",
      "NEWTOWNSTATION_T",
      "MACDONALDTOWNSTATION_T",
      "TOWNHALL_T",
      "WYNYARD_T",
      "CIRCULARQUAY_T",
      "STJAMES_T",
      "MUSEUM_T",
      "CASULA_T",
      "GLENFIELD_T",
      "MACQUARIE_FIELDS_T",
      "INGLEBURNSTATION_T",
      "MINTOSTATION_T",
      "LEUMEAHSTATION_T",
      "CAMPBELLTOWN_T",
      "MACARTHUR_T"
    ],
    "T4": [
      "CENTRAL_T",
      "REDFERN_T",
      "GREEN_SQUARE_T",
      "MASCOT_T",
      "WOLLI_CREEK_T",
      "TEMPE_T",
      "ARNCLIFFE_T",
      "ROCKDALE_T",
      "KOGARAH_T",
      "CARLTON_T",
      "ALLAWAH_T",
      "HURSTVILLE_T",
      "PENSHURST_T",
      "MORTDALE_T",
      "OATLEY_T",
      "COMO_T",
      "JANNALI_T",
      "SUTHERLAND_T",
      "LOFTUS_T",
      "ENGADINE_T",
      "HEATHCOTE_T",
      "WATERFALL_T",
      "KIRRAWEE_T",
      "GYMEA_T",
      "MIRANDA_T",
      "CARINGBAH_T",
      "CRONULLA_T",
      "MUSEUM_T",
      "STJAMES_T",
      "MARTINPLACE_T",
      "KINGS_CROSS_T",
      "EDGECLIFF_T",
      "BONDI_T",
      "CIRCULARQUAY_T",
      "WYNYARD_T",
      "TOWNHALL_T",
      "ERSKINEVILLESTATION_T",
      "STPETERSSTATION_T",
      "SYDENHAMSTATION_T",
      "BANKSIASTATION_T",
      "WOOLOOWARESTATION_T"
    ],
    "T5": [
      "RICHMOND_T",
      "RIVERSTONE_T",
      "SCHOFIELDS_T",
      "QUAKERS_HILL_T",
      "MARAYONG_T",
      "BLACKTOWN_T",
      "PARRAMATTA_T",
      "GRANVILLE_T",
      "LIDCOMBE_T",
      "FLEMINGTON_T",
      "STRATHFIELD_T",
      "LEPPINGTON_T",
      "EDMONSON_PARK_T",
      "GLENFIELD_T",
      "CASULA_T",
      "LIVERPOOL_T",
      "WARWICK_FARM_T",
      "CABRAMATTA_T",
      "CANLEYVALESTATION_T",
      "FAIRFIELDSTATION_T",
      "YENNORASTATION_T",
      "GUILDFORDSTATION_T",
      "MERRYLANDS_T",
      "HARRISPARKSTATION_T",
      "WESTMEAD_T",
      "WENTWORTHVILLESTATION_T",
      "PENDLEHILLSTATION_T",
      "TOONGABBIESTATION_T",
      "SEVENHILLSSTATION_T",
      "VINEYARDSTATION_T",
      "MULGRAVESTATION_T",
      "WINDSORSTATION_T",
      "CLARENDONSTATION_T",
      "EASTRICHMONDSTATION_T"
    ],
    "T7": [
      "CENTRAL_T",
      "REDFERN_T",
      "LIDCOMBE_T",
      "OLYMPIC_PARK_T",
      "MUSEUM_T",
      "STJAMES_T",
      "CIRCULARQUAY_T",
      "WYNYARD_T",
      "TOWNHALL_T",
      "MACDONALDTOWNSTATION_T",
      "NEWTOWNSTATION_T",
      "STANMORESTATION_T",
      "PETERSHAMSTATION_T",
      "LEWISHAMSTATION_T",
      "SUMMERHILLSTATION_T",
      "ASHFIELD_T",
      "CROYDON_T",
      "BURWOOD_T",
      "STRATHFIELD_T",
      "HOMEBUSH_T",
      "BLACKTOWN_T",
      "SEVENHILLSSTATION_T",
      "TOONGABBIESTATION_T",
      "PENDLEHILLSTATION_T",
      "WENTWORTHVILLESTATION_T",
      "WESTMEAD_T",
      "PARRAMATTA_T",
      "HARRISPARKSTATION_T",
      "GRANVILLE_T",
      "AUBURN_T"
    ],
    "T8": [
      "CENTRAL_T",
      "GREEN_SQUARE_T",
      "MASCOT_T",
      "AIRPORT_DOM_T",
      "AIRPORT_INT_T",
      "REDFERN_T",
      "WOLLI_CREEK_T",
      "TEMPE_T",
      "ARNCLIFFE_T",
      "ROCKDALE_T",
      "BEXLEY_T",
      "KINGSGROVE_T",
      "BEVERLY_HILLS_T",
      "NARWEE_T",
      "RIVERWOOD_T",
      "PADSTOW_T",
      "REVESBY_T",
      "PANANIA_T",
      "EAST_HILLS_T",
      "MACQUARIE_FIELDS_T",
      "CAMPBELLTOWN_T",
      "MACARTHUR_T",
      "LEUMEAHSTATION_T",
      "MINTOSTATION_T",
      "INGLEBURNSTATION_T",
      "GLENFIELD_T",
      "HOLSWORTHYSTATION_T",
      "BEXLEY_NORTH_T",
      "BARDWELL_PARK_T",
      "TURRELLASTATION_T",
      "TOWNHALL_T",
      "WYNYARD_T",
      "CIRCULARQUAY_T",
      "STJAMES_T",
      "MUSEUM_T"
    ],
    "T9": [
      "CENTRAL_T",
      "STRATHFIELD_T",
      "RHODES_T",
      "MEADOWBANK_T",
      "WEST_RYDE_T",
      "EASTWOOD_T",
      "EPPING_T",
      "HORNSBY_T",
      "GORDON_T",
      "CHATSWOOD_T",
      "NORTHSYDNEY_T",
      "BEROWRA_T",
      "MOUNT_KURINGGAI_T",
      "MOUNT_COLAH_T",
      "ASQUITH_T",
      "WAITARA_T",
      "WAHROONGASTATION_T",
      "WARRAWEE_T",
      "TURRAMURRA_T",
      "PYMBLE_T",
      "KILLARA_T",
      "LINDFIELD_T",
      "ROSEVILLE_T",
      "ARTARMON_T",
      "STLEONARDS_T",
      "WOLLSTONECRAFT_T",
      "WAVERTON_T",
      "MILSONS_POINT_T",
      "WYNYARD_T",
      "TOWNHALL_T",
      "REDFERN_T",
      "BURWOOD_T",
      "NORTHSTRATHFIELDSTATION_T",
      "CONCORDWESTSTATION_T",
      "DENISTONESTATION_T",
      "CHELTENHAMSTATION_T",
      "BEECROFTSTATION_T",
      "PENNANTHILLSSTATION_T",
      "THORNLEIGHSTATION_T",
      "NORMANHURSTSTATION_T"
    ],
    "CCN": [
      "CENTRAL_T",
      "STRATHFIELD_T",
      "EPPING_T",
      "HORNSBY_T",
      "COWAN_T",
      "HAWKESBURY_RIVER_T",
      "GOSFORD_T",
      "WYONG_T",
      "NEWCASTLE_T",
      "HAMILTONSTATION_T",
      "BROADMEADOWSTATION_T",
      "ADAMSTOWNSTATION_T",
      "KOTARASTATION_T",
      "CARDIFFSTATION_T",
      "COCKLECREEKSTATION_T",
      "TERALBASTATION_T",
      "BOORAGULSTATION_T",
      "FASSIFERNSTATION_T",
      "AWABASTATION_T",
      "DORACREEKSTATION_T",
      "MORISSETSTATION_T",
      "WYEESTATION_T",
      "WARNERVALESTATION_T",
      "TUGGERAHSTATION_T",
      "OURIMBAHSTATION_T",
      "LISAROWSTATION_T",
      "NIAGARAPARKSTATION_T",
      "NARARASTATION_T",
      "POINTCLARESTATION_T",
      "TASCOTTSTATION_T",
      "KOOLEWONGSTATION_T",
      "WOYWOYSTATION_T",
      "BEROWRA_T",
      "MOUNT_KURINGGAI_T",
      "MOUNT_COLAH_T",
      "ASQUITH_T",
      "WONDABYNESTATION_T"
    ],
    "BMT": [
      "CENTRAL_T",
      "STRATHFIELD_T",
      "PARRAMATTA_T",
      "BLACKTOWN_T",
      "PENRITH_T",
      "KATOOMBA_T",
      "LITHGOW_T",
      "BELLSTATION_T",
      "MOUNTVICTORIASTATION_T",
      "BLACKHEATHSTATION_T",
      "MEDLOWBATHSTATION_T",
      "LEURASTATION_T",
      "WENTWORTHFALLSSTATION_T",
      "BULLABURRASTATION_T",
      "LAWSONSTATION_T",
      "HAZELBROOKSTATION_T",
      "WOODFORDSTATION_T",
      "LINDENSTATION_T",
      "FAULCONBRIDGESTATION_T",
      "SPRINGWOODSTATION_T",
      "VALLEYHEIGHTSSTATION_T",
      "WARRIMOOSTATION_T",
      "BLAXLANDSTATION_T",
      "GLENBROOKSTATION_T",
      "LAPSTONESTATION_T",
      "EMU_PLAINS_T",
      "REDFERN_T",
      "ZIGZAGSTATION_T",
      "WESTMEAD_T",
      "RYDALSTATION_T",
      "TARANASTATION_T",
      "BATHURSTSTATION_T"
    ],
    "SCO": [
      "CENTRAL_T",
      "HURSTVILLE_T",
      "SUTHERLAND_T",
      "WOLLONGONG_T",
      "KIAMA_T",
      "BOMBOSTATION_T",
      "MINNAMURRASTATION_T",
      "SHELLHARBOURJUNCTIONSTATION_T",
      "OAKFLATSSTATION_T",
      "ALBIONPARKSTATION_T",
      "DAPTOSTATION_T",
      "UNANDERRASTATION_T",
      "CONISTONSTATION_T",
      "NORTHWOLLONGONGSTATION_T",
      "FAIRYMEADOWSTATION_T",
      "TOWRADGISTATION_T",
      "CORRIMALSTATION_T",
      "BELLAMBISTATION_T",
      "WOONONASTATION_T",
      "BULLISTATION_T",
      "THIRROULSTATION_T",
      "AUSTINMERSTATION_T",
      "COLEDALESTATION_T",
      "WOMBARRASTATION_T",
      "SCARBOROUGHSTATION_T",
      "COALCLIFFSTATION_T",
      "STANWELLPARKSTATION_T",
      "OTFORDSTATION_T",
      "HELENSBURGHSTATION_T",
      "WATERFALL_T",
      "WOLLI_CREEK_T",
      "SYDENHAMSTATION_T",
      "REDFERN_T",
      "TOWNHALL_T",
      "MARTINPLACE_T",
      "KINGS_CROSS_T",
      "EDGECLIFF_T",
      "BONDI_T",
      "LOFTUS_T",
      "ENGADINE_T",
      "HEATHCOTE_T",
      "GERRINGONGSTATION_T",
      "BERRYSTATION_T",
      "BOMADERRYSTATION_T"
    ],
    "T6": [
      "LIDCOMBE_T",
      "BERALASTATION_T",
      "REGENTS_PARK_T",
      "BIRRONGSTATION_T",
      "YAGOONASTATION_T",
      "BANKSTOWN_T"
    ]
  }
}